"site_code.x","project_name","community_type","mode_yr","site_proj_comm","OID_","site_code.y","Latitude","Longitude","MAP","MAT","GDiv","ANPP","HumanDisturbance","N_Deposition"
"ANG","watering","0",1,"ANG_watering_0",2,"ANG",39.73825,-123.6301111,1565,11,42.25320602,175.9914971,8.9511862,234.5391235
"ANR","Fert1","0",1,"ANR_Fert1_0",3,"ANR",65.5,19,574,-1.4,33.21780093,68,4.0964389,349.5115356
"ANR","Fert3","0",1,"ANR_Fert3_0",4,"ANR",65.5,19,574,-1.4,30.12586806,68,4.0964389,349.5115356
"ARC","MAT2","0",4,"ARC_MAT2_0",5,"ARC",68.62840877,-149.590593,224,-11.4,30.37605324,185,8,22.2946663
"ARC","MNT","0",1,"ARC_MNT_0",6,"ARC",68.62840877,-149.590593,224,-11.4,88.83840279,150,8,22.2946663
"ASGA","Exp1","a",1,"ASGA_Exp1_a",7,"ASGA",42.549593,-85.994617,938,8.6,74.91632332,140.6588333,9.8543692,977.4589844
"ASGA","clonal","0",1,"ASGA_clonal_0",8,"ASGA",42.549593,-85.994617,938,8.6,72.86018904,210.9063889,9.8543692,977.4589844
"AUS_Ag_Biod","0","0",1,"AUS_Ag_Biod",162,"AUS_Ag_Biod",-34.09,142.5,246,17,58,NA,13.489337,132.2594299
"AUS_Arumpo","0","0",1,"AUS_Arumpo",163,"AUS_Arumpo",-33.94,143.04,245,17.3,30,NA,11.4557295,218.6474762
"AUS_Berry","0","0",4,"AUS_Berry",164,"AUS_Berry",-32.88,148.07,605,17.4,79,NA,14.1273899,291.1624756
"AUS_Birregurra","0","0",1,"AUS_Birregurra",165,"AUS_Birregurra",-38.27,146.69,730,12.7,23,712,10.154952,238.2455902
"AUS_Buronga","0","0",1,"AUS_Buronga",166,"AUS_Buronga",-34.16,142.2,260,17.1,35,NA,20.2203617,132.2594299
"AUS_CYP","0","0",1,"AUS_CYP",168,"AUS_CYP",-34.97,146.48,432,16.3,54,72.5,10.2938433,218.6474762
"AUS_Craigieburn","0","0",1,"AUS_Craigieburn",167,"AUS_Craigieburn",-37.58,144.93,665,13.8,29,349.6,39.3701744,238.2455902
"AUS_Darlington","0","0",1,"AUS_Darlington",169,"AUS_Darlington",-37.88,143.02,620,13.2,29,500,10.3143568,238.2455902
"AUS_FowlersGap","0","0",4,"AUS_FowlersGap",170,"AUS_FowlersGap",-31.07,141.72,223,18.8,53,NA,4.5700755,101.3603973
"AUS_Grampians","0","0",1,"AUS_Grampians",171,"AUS_Grampians",-37.05,142.37,629,13.6,35,43.6,2.8614979,110.819603
"AUS_Hamilton","0","0",1,"AUS_Hamilton",172,"AUS_Hamilton",-37.84,142.08,686,13,22,242,17.0199051,110.819603
"AUS_Hattah","0","0",4,"AUS_Hattah",173,"AUS_Hattah",-34.7,142.3,293,16.7,26,171.2,2.976954,132.2594299
"AUS_Inverleigh","0","0",1,"AUS_Inverleigh",174,"AUS_Inverleigh",-38.08,144.05,523,13.8,18,305.8,11.2627525,238.2455902
"AUS_Kimberley","0","0",3,"AUS_Kimberley",175,"AUS_Kimberley",-32.5,145.61,245,17.7,78,NA,4.2079496,218.6474762
"AUS_Kinypanial","0","0",1,"AUS_Kinypanial",176,"AUS_Kinypanial",-36.32,143.8,409,15.3,34,207.7,15.3402567,218.6474762
"AUS_Mallee","0","0",1,"AUS_Mallee",179,"AUS_Mallee",-34.17,142.46,240,17,15,72.5,6.0680771,132.2594299
"AUS_Murray","0","0",1,"AUS_Murray",180,"AUS_Murray",-34.27,141.82,272,17,12,172.3,11.7611151,132.2594299
"AUS_OBriens","0","0",2,"AUS_OBriens",181,"AUS_OBriens",-36.22,144.42,381,15.4,26,406.6,15.0967417,218.6474762
"AUS_Paradise","0","0",1,"AUS_Paradise",182,"AUS_Paradise",-34.79,144.78,400,16.9,24,NA,18.71978,218.6474762
"AUS_Pinegrove","0","0",1,"AUS_Pinegrove",183,"AUS_Pinegrove",-36.22,144.42,381,15.4,22,161.9,15.0967417,218.6474762
"AUS_Savernake","0","0",1,"AUS_Savernake",184,"AUS_Savernake",-35.79,145.95,475,15.8,67,NA,15.8316002,218.6474762
"AUS_Wapweelah","0","0",1,"AUS_Wapweelah",185,"AUS_Wapweelah",-29.26,145.46,312,20.3,31,NA,4.565588,133.5111542
"AUS_Warrambeen","0","0",1,"AUS_Warrambeen",186,"AUS_Warrambeen",-37.92,143.87,587,13.3,30,943.9,14.1920137,238.2455902
"AUS_Werrai","0","0",3,"AUS_Werrai",187,"AUS_Werrai",-35.35,144.58,375,16.4,21,54.4,4.1388521,218.6474762
"AUS_WilsonsPromontory","0","0",1,"AUS_WilsonsPromontory",188,"AUS_WilsonsPromontory",-38.88,146.23,960,13.6,23,940.8,5.2133589,238.2455902
"AUS_Yathong_large","0","0",2,"AUS_Yathong_large",189,"AUS_Yathong_large",-32.56,145.57,340,17.7,34,NA,8.0139294,218.6474762
"AUS_Yathong_small","0","0",1,"AUS_Yathong_small",190,"AUS_Yathong_small",-32.52,145.59,340,17.7,77,NA,15.0454121,218.6474762
"AZI","EELplot","0",1,"AZI_EELplot_0",9,"AZI",33.666,101.85,670,2,65.87163194,337.1044,10.1022835,1045.707642
"AZI","NitPhos","0",2,"AZI_NitPhos_0",10,"AZI",33.666,101.85,670,2,76.3135571,459.37448,10.1022835,1045.707642
"Alberta","CCD","0",1,"Alberta_CCD_0",1,"Alberta",53.001239,-111.519684,428,2,40.10284722,191,24.9927197,369.6689148
"Argentina_ElPalmar","0","0",3,"Argentina_ElPalmar",132,"Argentina_ElPalmar",-31.87,-58.29,1338,18.3,90,720,11.9039783,533.2081909
"Argentina_Glencoe","0","0",2,"Argentina_Glencoe",133,"Argentina_Glencoe",-32.01,-57.17,1495,18.1,94,650,5.3155875,326.5032349
"Argentina_ML","0","0",1,"Argentina_ML",134,"Argentina_ML",-45.6,-71.44,365,6.3,35,NA,6.7194166,71.6097488
"Argentina_Quebrada","0","0",3,"Argentina_Quebrada",135,"Argentina_Quebrada",-32.91,-54.45,1341,16.6,92,585,9.9924603,326.5032349
"Argentina_RMcI84","0","0",1,"Argentina_RMcI84",137,"Argentina_RMcI84",-45.38,-70.25,199,9.2,31,NA,7.2591062,71.6097488
"Argentina_Relincho","0","0",1,"Argentina_Relincho",136,"Argentina_Relincho",-34.34,-56.98,1155,16.9,91,655,6.3698397,326.5032349
"Argentina_S1","0","0",1,"Argentina_S1",138,"Argentina_S1",-41.11,-70.91,472,7,25,NA,18.1813545,114.403801
"Argentina_S10","0","0",1,"Argentina_S10",139,"Argentina_S10",-41.08,-71.03,530,7.9,15,NA,11.2705526,114.403801
"Argentina_S11","0","0",3,"Argentina_S11",140,"Argentina_S11",-41.08,-71.02,530,7.9,18,NA,4.3819437,114.403801
"Argentina_S12","0","0",2,"Argentina_S12",141,"Argentina_S12",-41.11,-70.63,297,7.7,9,NA,4.1701899,114.403801
"Argentina_S13","0","0",1,"Argentina_S13",142,"Argentina_S13",-41.11,-70.62,297,7.4,11,NA,3.9309921,114.403801
"Argentina_S14","0","0",1,"Argentina_S14",143,"Argentina_S14",-41.12,-70.6,297,7.4,11,NA,3.8126574,114.403801
"Argentina_S15","0","0",2,"Argentina_S15",144,"Argentina_S15",-41.12,-70.59,297,7.4,17,NA,11.7591143,114.403801
"Argentina_S16","0","0",2,"Argentina_S16",145,"Argentina_S16",-41.13,-70.58,297,7.5,14,NA,3.7921331,114.403801
"Argentina_S17","0","0",1,"Argentina_S17",146,"Argentina_S17",-41.14,-70.58,297,7.5,16,NA,11.7196608,114.403801
"Argentina_S18","0","0",1,"Argentina_S18",147,"Argentina_S18",-45.41,-70.3,199,9,18,NA,7.6166925,71.6097488
"Argentina_S19","0","0",3,"Argentina_S19",148,"Argentina_S19",-45.39,-70.25,199,9.2,19,NA,4.855525,71.6097488
"Argentina_S2","0","0",1,"Argentina_S2",149,"Argentina_S2",-41.13,-70.89,472,7.4,20,NA,14.3848047,114.403801
"Argentina_S20","0","0",2,"Argentina_S20",150,"Argentina_S20",-45.38,-70.25,199,9.2,15,NA,7.2591062,71.6097488
"Argentina_S21","0","0",1,"Argentina_S21",151,"Argentina_S21",-45.61,-71.42,365,6.3,25,NA,4.3870149,71.6097488
"Argentina_S22","0","0",1,"Argentina_S22",152,"Argentina_S22",-45.58,-71.4,365,6.7,21,NA,10.8925486,71.6097488
"Argentina_S3","0","0",1,"Argentina_S3",153,"Argentina_S3",-41.13,-70.9,472,7.4,18,NA,14.3848047,114.403801
"Argentina_S4","0","0",1,"Argentina_S4",154,"Argentina_S4",-41.11,-71.08,530,7.7,18,NA,19.2529602,114.403801
"Argentina_S5","0","0",1,"Argentina_S5",155,"Argentina_S5",-41.11,-71.08,530,7.7,22,NA,19.2529602,114.403801
"Argentina_S6","0","0",1,"Argentina_S6",156,"Argentina_S6",-41.11,-71.09,530,7.9,17,NA,5.5349588,114.403801
"Argentina_S7","0","0",1,"Argentina_S7",157,"Argentina_S7",-41.11,-71.07,530,7.7,20,NA,10.7519131,114.403801
"Argentina_S8","0","0",4,"Argentina_S8",158,"Argentina_S8",-41.1,-71.04,530,8,13,NA,9.0280418,114.403801
"Argentina_S9","0","0",1,"Argentina_S9",159,"Argentina_S9",-41.1,-71.05,530,7.7,17,NA,16.8963718,114.403801
"Argentina_SUL","0","0",1,"Argentina_SUL",161,"Argentina_SUL",-33.88,-55.56,1341,16.7,59,707,12.8020821,326.5032349
"Argentina_Sierra","0","0",4,"Argentina_Sierra",160,"Argentina_Sierra",-38.05,-61.98,800,12.6,61,500,16.6507816,186.8372498
"BAY","LIND","0",1,"BAY_LIND_0",11,"BAY",49.9166667,11.5833333,643,8.3,49.36916667,647.6666667,24.030653,1475.484863
"BUX","PQ","0",2,"BUX_PQ_0",16,"BUX",53.231747,-1.918228,1198,7.8,57.29926698,380,39.8053436,691.4129028
"Bt","DroughtNet","0",1,"Bt_DroughtNet_0",13,"Bt",49.9219444,11.5788889,643,8.3,68.08918981,288.3306,26.3754444,1475.484863
"Bt","EVENT2","0",1,"Bt_EVENT2_0",14,"Bt",49.9219444,11.5788889,643,8.3,53.50830633,612.476,26.3754444,1475.484863
"Bt","NPKDNet","0",1,"Bt_NPKDNet_0",15,"Bt",49.9219444,11.5788889,643,8.3,87.32201389,176.4062,26.3754444,1475.484863
"Bt","NutNet","0",1,"Bt_NutNet_0",12,"Bt",49.9219444,11.5788889,643,8.3,62.61775463,149.883925,26.3754444,1475.484863
"Buckhorn","0","0",3,"Buckhorn",191,"Buckhorn",38.85,-109.16,272,10.9,29,NA,11.6067238,297.7605896
"CAR","salt marsh","ArthSal",1,"CAR_salt marsh_ArthSal",20,"CAR",34.3973439,-119.5283474,408,16,4.869444444,1415,47.939266,354.2384033
"CAR","salt marsh","DisSal",1,"CAR_salt marsh_DisSal",18,"CAR",34.3973439,-119.5283474,408,16,5.948333333,1415,47.939266,354.2384033
"CAR","salt marsh","HighMar",1,"CAR_salt marsh_HighMar",21,"CAR",34.3973439,-119.5283474,408,16,6.628958333,1415,47.939266,354.2384033
"CAR","salt marsh","JaumSal",1,"CAR_salt marsh_JaumSal",19,"CAR",34.3973439,-119.5283474,408,16,3.9,1415,47.939266,354.2384033
"CAR","salt marsh","MonArth",1,"CAR_salt marsh_MonArth",22,"CAR",34.3973439,-119.5283474,408,16,7.075138889,1415,47.939266,354.2384033
"CAR","salt marsh","SalCus",1,"CAR_salt marsh_SalCus",17,"CAR",34.3973439,-119.5283474,408,16,5.99875,1415,47.939266,354.2384033
"CAU","RMAPC","ALH",1,"CAU_RMAPC_ALH",25,"CAU",43.45,41.68,912,1.3,38.26340278,148.6427083,3.7028646,828.8179932
"CAU","RMAPC","FVG",1,"CAU_RMAPC_FVG",23,"CAU",43.45,41.68,912,1.3,48.76769483,240.0270833,3.7028646,828.8179932
"CAU","RMAPC","GHM",1,"CAU_RMAPC_GHM",26,"CAU",43.45,41.68,912,1.3,30.04855324,300.72875,3.7028646,828.8179932
"CAU","RMAPC","SBC",1,"CAU_RMAPC_SBC",24,"CAU",43.45,41.68,912,1.3,26.88069444,121.2744583,3.7028646,828.8179932
"CDR","BioCON","0",1,"CDR_BioCON_0",33,"CDR",45.4,-93.2,751,6.3,15.19118056,436.5050591,15.4327831,897.5437012
"CDR","e001","A",1,"CDR_e001_A",34,"CDR",45.4,-93.2,751,6.3,57.17301698,478.018218,15.4327831,897.5437012
"CDR","e001","B",1,"CDR_e001_B",31,"CDR",45.4,-93.2,751,6.3,57.47307449,397.1541167,15.4327831,897.5437012
"CDR","e001","C",1,"CDR_e001_C",30,"CDR",45.4,-93.2,751,6.3,65.71340566,493.8024464,15.4327831,897.5437012
"CDR","e001","D",1,"CDR_e001_D",29,"CDR",45.4,-93.2,751,6.3,95.30806599,470.8950808,15.4327831,897.5437012
"CDR","e002","A",1,"CDR_e002_A",27,"CDR",45.4,-93.2,751,6.3,50.80235532,160.2459105,15.4327831,897.5437012
"CDR","e002","B",1,"CDR_e002_B",32,"CDR",45.4,-93.2,751,6.3,55.48483603,191.8895442,15.4327831,897.5437012
"CDR","e002","C",1,"CDR_e002_C",28,"CDR",45.4,-93.2,751,6.3,73.39580629,270.7811833,15.4327831,897.5437012
"CEH","MEGARICH","0",4,"CEH_MEGARICH_0",35,"CEH",53.2833333,-4.566666,871,9.9,27.08465278,779.9651,37.6945419,692.541626
"CHY","EDGE","0",2,"CHY_EDGE_0",36,"CHY",41.181771,-104.897546,384,7,82.71931234,137,18.9289875,469.1299133
"CHY","PHACE","0",2,"CHY_PHACE_0",37,"CHY",41.181771,-104.897546,384,7,51.490215,116.8986003,18.9289875,469.1299133
"CLE","Imagine","0",1,"CLE_Imagine_0",38,"CLE",45.7166667,3.0166667,799,8,12,489.385,29.9681053,1189.038208
"CPER","0","0",1,"CPER",249,"CPER",40.83,-104.72,340,8.4,78,70,10.1608639,469.1299133
"CUL","Culardoch","0",1,"CUL_Culardoch_0",39,"CUL",57.0666667,-3.3333333,1069,4.9,33.76577546,105,4.1162314,692.541626
"California_RanchoMarino","0","0",1,"California_RanchoMarino",192,"California_RanchoMarino",35.54,-121.09,733,NA,42,422,17.374882,354.2384033
"California_Sedgwick","0","0",1,"California_Sedgwick",193,"California_Sedgwick",34.68,-120.03,565,15,37,287,10.0637932,354.2384033
"California_Sedgwick_Airstrip","0","0",1,"California_Sedgwick_Airstrip",194,"California_Sedgwick_Airstrip",34.69,-120.04,401,15,30,271,10.7643118,354.2384033
"California_Sedgwick_Lisque","0","0",1,"California_Sedgwick_Lisque",195,"California_Sedgwick_Lisque",34.69,-120.04,401,15,56,271,10.7643118,354.2384033
"California_Sedgwick_Mesa","0","0",1,"California_Sedgwick_Mesa",196,"California_Sedgwick_Mesa",34.69,-120.04,401,15,54,271,10.7643118,354.2384033
"Canada_Currie","0","0",4,"Canada_Currie",197,"Canada_Currie",50.73,-120.52,304,8.3,12,155.4,30.0856647,247.0965118
"Canada_Dewdrop.1","0","0",2,"Canada_Dewdrop.1",198,"Canada_Dewdrop.1",50.76,-120.65,353,6.1,9,83.6,13.7761745,247.0965118
"Canada_Dewdrop.2","0","0",3,"Canada_Dewdrop.2",199,"Canada_Dewdrop.2",50.75,-120.63,320,8.5,13,163.6,22.0355816,247.0965118
"Canada_Drum","0","0",1,"Canada_Drum",200,"Canada_Drum",50.09,-120.67,434,5.3,13,99,7.1306758,247.0965118
"Canada_FLHT.2","0","0",1,"Canada_FLHT.2",202,"Canada_FLHT.2",50.74,-120.36,441,8.4,14,187.9,42.4878044,247.0965118
"Canada_Frolek","0","0",2,"Canada_Frolek",203,"Canada_Frolek",50.82,-120.44,388,5.1,18,293.5,10.0842619,247.0965118
"Canada_Goose.Lake","0","0",3,"Canada_Goose.Lake",204,"Canada_Goose.Lake",50.1,-120.43,329,4.1,24,283.8,3.0611486,247.0965118
"Canada_LG1.LDB","0","0",2,"Canada_LG1.LDB",210,"Canada_LG1.LDB",50.73,-120.44,376,7.5,9,114.6,21.1768284,247.0965118
"Canada_LG2.LDB","0","0",1,"Canada_LG2.LDB",NA,NA,NA,NA,NA,NA,NA,NA,NA,NA
"Canada_LG3.LDB","0","0",1,"Canada_LG3.LDB",211,"Canada_LG3.LDB",50.73,-120.44,384,7.5,13,153.4,21.1768284,247.0965118
"Canada_LG4.LDB","0","0",1,"Canada_LG4.LDB",212,"Canada_LG4.LDB",50.74,-120.43,364,7.5,17,147.3,19.690134,247.0965118
"Canada_LG5.LDB","0","0",1,"Canada_LG5.LDB",213,"Canada_LG5.LDB",50.74,-120.43,362,7.5,12,218.8,19.690134,247.0965118
"Canada_LGS.1","0","0",1,"Canada_LGS.1",214,"Canada_LGS.1",50.73,-120.43,391,7.5,16,87.8,21.3044605,247.0965118
"Canada_LGS.2","0","0",2,"Canada_LGS.2",215,"Canada_LGS.2",50.74,-120.43,412,7.5,10,162.6,19.690134,247.0965118
"Canada_LGS.3","0","0",1,"Canada_LGS.3",216,"Canada_LGS.3",50.74,-120.43,469,7.5,20,176.1,19.690134,247.0965118
"Canada_LGS.4","0","0",1,"Canada_LGS.4",217,"Canada_LGS.4",50.73,-120.44,365,7.5,12,126.8,21.1768284,247.0965118
"Canada_LGS.5","0","0",3,"Canada_LGS.5",218,"Canada_LGS.5",50.73,-120.44,383,7.5,12,173,21.1768284,247.0965118
"Canada_LGS.6","0","0",1,"Canada_LGS.6",219,"Canada_LGS.6",50.74,-120.44,304,7.5,16,186.7,19.7053757,247.0965118
"Canada_Long.lake.4","0","0",1,"Canada_Long.lake.4",223,"Canada_Long.lake.4",50.79,-120.4,448,6.1,15,198.4,18.2975445,247.0965118
"Canada_Long.lake.5","0","0",1,"Canada_Long.lake.5",224,"Canada_Long.lake.5",50.79,-120.4,441,6.1,17,208.4,18.2975445,247.0965118
"Canada_Long.lake.6","0","0",1,"Canada_Long.lake.6",225,"Canada_Long.lake.6",50.79,-120.4,388,6.1,22,230.3,18.2975445,247.0965118
"Canada_Lundbom.Lake","0","0",1,"Canada_Lundbom.Lake",226,"Canada_Lundbom.Lake",50.09,-120.63,329,4,9,191,8.106575,247.0965118
"Canada_MG1.LDB","0","0",1,"Canada_MG1.LDB",228,"Canada_MG1.LDB",50.76,-120.44,327,5.9,16,231.4,14.8388863,247.0965118
"Canada_MG2.LDB","0","0",1,"Canada_MG2.LDB",229,"Canada_MG2.LDB",50.76,-120.44,327,5.9,20,215.2,14.8388863,247.0965118
"Canada_MG3.LDB","0","0",1,"Canada_MG3.LDB",230,"Canada_MG3.LDB",50.74,-120.44,328,7.5,21,249.6,19.7053757,247.0965118
"Canada_MGBR.1","0","0",1,"Canada_MGBR.1",231,"Canada_MGBR.1",50.76,-120.44,375,5.9,20,288.2,14.8388863,247.0965118
"Canada_MGBR.2","0","0",4,"Canada_MGBR.2",232,"Canada_MGBR.2",50.77,-120.43,376,5.9,21,271.4,16.8958035,247.0965118
"Canada_Mara.1","0","0",1,"Canada_Mara.1",227,"Canada_Mara.1",50.74,-120.5,334,7.4,16,157.9,17.6706429,247.0965118
"Canada_Powerline","0","0",4,"Canada_Powerline",233,"Canada_Powerline",50.13,-120.44,373,4.8,15,219.1,4.1278529,247.0965118
"Canada_Redhil","0","0",1,"Canada_Redhil",234,"Canada_Redhil",50.75,-120.42,384,7.5,16,314.1,20.0055199,247.0965118
"Canada_Repeter","0","0",3,"Canada_Repeter",235,"Canada_Repeter",50.07,-120.43,364,3.9,12,318.7,4.0792537,247.0965118
"Canada_Summit.North","0","0",4,"Canada_Summit.North",236,"Canada_Summit.North",50.06,-120.43,362,3.9,17,340.4,4.077343,247.0965118
"Canada_Summit.South","0","0",1,"Canada_Summit.South",237,"Canada_Summit.South",50.06,-120.43,391,3.9,14,417.6,4.077343,247.0965118
"Canada_TMV","0","0",1,"Canada_TMV",238,"Canada_TMV",50.8,-120.39,412,5.6,17,220.6,15.0880041,247.0965118
"Canada_UG1.LDB","0","0",1,"Canada_UG1.LDB",NA,NA,NA,NA,NA,NA,NA,NA,NA,NA
"Canada_UG2.LDB","0","0",1,"Canada_UG2.LDB",NA,NA,NA,NA,NA,NA,NA,NA,NA,NA
"Canada_UG3.LDB","0","0",1,"Canada_UG3.LDB",NA,NA,NA,NA,NA,NA,NA,NA,NA,NA
"Canada_fht1","0","0",1,"Canada_fht1",201,"Canada_fht1",50.74,-120.44,448,7.5,18,247.4,19.7053757,247.0965118
"Canada_gooselake2","0","0",1,"Canada_gooselake2",205,"Canada_gooselake2",50.11,-120.42,334,4.1,18,251.5,1.7562101,247.0965118
"Canada_hav","0","0",1,"Canada_hav",206,"Canada_hav",50.09,-120.45,327,4.1,20,202.2,4.2759881,247.0965118
"Canada_hbb","0","0",3,"Canada_hbb",207,"Canada_hbb",50.08,-120.45,327,3.9,14,247.7,8.0539799,247.0965118
"Canada_hkb","0","0",2,"Canada_hkb",208,"Canada_hkb",50.08,-120.47,328,4.4,11,275.8,4.046824,247.0965118
"Canada_hsr","0","0",1,"Canada_hsr",209,"Canada_hsr",50.07,-120.45,375,3.9,20,210.9,4.0494571,247.0965118
"Canada_llrs","0","0",1,"Canada_llrs",220,"Canada_llrs",50.78,-120.41,353,6.1,16,312.3,16.9954052,247.0965118
"Canada_lls1","0","0",2,"Canada_lls1",221,"Canada_lls1",50.8,-120.41,320,5.6,16,198,13.8999758,247.0965118
"Canada_llw","0","0",4,"Canada_llw",222,"Canada_llw",50.79,-120.41,434,6.1,13,205.5,18.2975445,247.0965118
"CanaryIsland_Anaga","0","0",1,"CanaryIsland_Anaga",239,"CanaryIsland_Anaga",28.54,-16.19,480,19.4,114,256,18.4942665,84.6135635
"CanaryIsland_Teno","0","0",1,"CanaryIsland_Teno",240,"CanaryIsland_Teno",28.25,-16.75,450,12.7,136,NA,10.8029728,84.6135635
"CanaryIsland_Valle","0","0",1,"CanaryIsland_Valle",241,"CanaryIsland_Valle",28.08,-17.33,313,18.6,92,174,22.017805,84.6135635
"CedarCreek","0","0",1,"CedarCreek",242,"CedarCreek",45.08,-93.17,825,7.1,84,222,43.3671799,897.5437012
"China_LC","0","0",1,"China_LC",243,"China_LC",43.55,116.67,334,1.2,30,150,12.1735945,694.2258301
"China_SG","0","0",1,"China_SG",244,"China_SG",43.54,116.56,334,1.3,28,150,5.5158081,694.2258301
"Cisco Mesa","0","0",2,"Cisco Mesa",246,"Cisco Mesa",39.05,-109.37,223,11.1,21,NA,2.455893,297.7605896
"Cisco Wash 1","0","0",2,"Cisco Wash 1",247,"Cisco Wash 1",39.01,-109.42,215,11.4,16,NA,9.5729294,297.7605896
"Cisco Wash 2","0","0",2,"Cisco Wash 2",248,"Cisco Wash 2",39.01,-109.41,215,11.5,24,NA,9.5729294,297.7605896
"DCGS","gap","0",1,"DCGS_gap_0",40,"DCGS",45.933333,-88.983333,810,3.9,110.4032421,708,8.1003551,816.6661377
"DL","GCME","0",1,"DL_GCME_0",43,"DL",42.0333333,116.2833333,391,1.6,63.96374035,205.3,15.4433374,1901.710449
"DL","GCME2","0",1,"DL_GCME2_0",41,"DL",42.0333333,116.2833333,391,1.6,59.75113303,205.3,15.4433374,1901.710449
"DL","NSFC","0",1,"DL_NSFC_0",42,"DL",42.0333333,116.2833333,391,1.6,NA,173.8365714,15.4433374,1901.710449
"DL","Precip","0",1,"DL_Precip_0",44,"DL",42.0333333,116.2833333,391,1.6,48.72353009,205.3,15.4433374,1901.710449
"DesertHigh","0","0",4,"DesertHigh",250,"DesertHigh",41.42,-111.42,635,2.4,33,203,5.8580976,297.7605896
"DesertLow","0","0",2,"DesertLow",251,"DesertLow",41.36,-111.42,305,2,18,125,9.6411562,297.7605896
"DesertSage","0","0",3,"DesertSage",252,"DesertSage",41.18,-111.08,305,3.9,27,47,11.6056824,297.7605896
"Dry Valley","0","0",1,"Dry Valley",253,"Dry Valley",38.15,-109.4,293,9.5,18,NA,7.4891419,297.7605896
"EGN","Nmow","0",1,"EGN_Nmow_0",45,"EGN",50.24807572,119.4188179,374,-1.7,53.38175207,198.5,1.9341699,648.9813232
"Ethiopia","0","0",2,"Ethiopia",254,"Ethiopia",4.78,38.37,500,19.3,31,NA,8.5763893,203.4675751
"Finse","WarmNut","0",4,"Finse_WarmNut_0",46,"Finse",60,7,1835,-1.1,104.1726592,95,3.2054586,557.8624878
"FortKeogh","0","0",1,"FortKeogh",255,"FortKeogh",46.39,-105.87,339,7.7,48,124,29.5718994,423.0978088
"France_Heath","0","0",2,"France_Heath",256,"France_Heath",45.08,6.05,940,5.7,80,320,27.5955372,1189.038208
"France_Mesic","0","0",2,"France_Mesic",257,"France_Mesic",44.87,5.47,1380,4.6,75,220,9.305891,1189.038208
"France_Xeric","0","0",4,"France_Xeric",258,"France_Xeric",44.87,5.47,1380,4.6,64,130,9.305891,1189.038208
"GVN","FACE","0",1,"GVN_FACE_0",48,"GVN",52.4833333,4.783333,794,9.2,30.85,NA,40.2376938,1476.593506
"Germany1","0","0",2,"Germany1",259,"Germany1",49.88,8.66,629,9.7,105,NA,46.2768173,1475.484863
"Germany2","0","0",1,"Germany2",260,"Germany2",49.88,8.66,629,9.7,55,NA,46.2768173,1475.484863
"Glen","Fert","0",1,"Glen_Fert_0",47,"Glen",56.816667,-3.433333,1002,5.8,73.61298471,NA,4.2994709,692.541626
"HAYS","Precip","0",1,"HAYS_Precip_0",50,"HAYS",38.866667,-99.383333,581,11.7,60.81493056,331,14.9837971,780.62323
"HYS","EDGE","0",2,"HYS_EDGE_0",51,"HYS",39.08731,-99.138703,599,11.7,113.7031723,246,9.5366306,780.62323
"Harts Draw","0","0",2,"Harts Draw",261,"Harts Draw",38.02,-109.49,372,8.7,18,NA,6.8621707,297.7605896
"Harts Point","0","0",2,"Harts Point",262,"Harts Point",37.96,-109.5,338,8.6,15,NA,9.7071238,274.468689
"Hayoka","WarmNit","0",2,"Hayoka_WarmNit_0",49,"Hayoka",69.66,18.78,892,2.3,10,376,26.580721,160.613739
"Horse Pature","0","0",2,"Horse Pature",263,"Horse Pature",39.07,-109.56,270,10.4,23,NA,9.6694765,297.7605896
"Hotel Mesa","0","0",3,"Hotel Mesa",264,"Hotel Mesa",38.84,-109.24,237,11.6,32,NA,11.9193525,297.7605896
"House Park","0","0",1,"House Park",265,"House Park",38,-109.86,327,9.1,35,NA,11.0291729,297.7605896
"IMGERS","NDE","0",1,"IMGERS_NDE_0",53,"IMGERS",43.4333333,116.0666667,331,0.2,30.71503472,213.9466667,6.538836,694.2258301
"IMGERS","Yu","0",1,"IMGERS_Yu_0",52,"IMGERS",43.4333333,116.0666667,331,0.2,28.06756944,147.0404167,6.538836,694.2258301
"India_Kibber","0","0",1,"India_Kibber",266,"India_Kibber",32.34,78.02,400,0.1,34,55,10.8216419,1539.635986
"India_Nutnet","0","0",2,"India_Nutnet",267,"India_Nutnet",32.32,78.01,507,0.6,15,55,10.9348993,1539.635986
"JRN","study 119","BajadaShrubland",1,"JRN_study 119_BajadaShrubland",57,"JRN",32.53,-106.7235,253,15,86.60546502,104,11.5964527,299.6559143
"JRN","study 119","BasinSlopes",1,"JRN_study 119_BasinSlopes",56,"JRN",32.53,-106.7235,253,15,104.8671249,113,11.5964527,299.6559143
"JRN","study 119","Peidmont",1,"JRN_study 119_Peidmont",55,"JRN",32.53,-106.7235,253,15,113.0233884,79,11.5964527,299.6559143
"JRN","study 119","Playa",1,"JRN_study 119_Playa",54,"JRN",32.53,-106.7235,253,15,50.60679398,199,11.5964527,299.6559143
"JRN","study278","0",1,"JRN_study278_0",58,"JRN",32.53,-106.7235,253,15,24.82241898,173,11.5964527,299.6559143
"JSP","GCE","0",1,"JSP_GCE_0",59,"JSP",37.40393396,-122.2444597,624,13.7,47.91825179,400,25.6208572,354.2384033
"Jornada","0","0",4,"Jornada",268,"Jornada",32.62,-106.74,280,14.8,43,NA,9.2236776,299.6559143
"Junner Koeland","0","0",2,"Junner Koeland",269,"Junner Koeland",52.53,6.48,758,9,42,463,17.4206867,1476.593506
"KAEFS","WAPAClip","0",1,"KAEFS_WAPAClip_0",60,"KAEFS",34.9833,-97.51666,907,16.2,58.05049474,402.546875,13.2843018,643.0072021
"KBS","T7","0",1,"KBS_T7_0",61,"KBS",42.4,-85.3666,907,8.8,116.1598293,438.0856736,18.4673939,977.4589844
"KLEE_cattle","0","0",2,"KLEE_cattle",274,"KLEE_cattle",0.3,36.81,613,17.6,29,NA,11.4797039,450.1618652
"KLEE_wildlife","0","0",4,"KLEE_wildlife",275,"KLEE_wildlife",0.3,36.81,613,17.6,36,NA,11.4797039,450.1618652
"KLU","BFFert","0",1,"KLU_BFFert_0",63,"KLU",61.0702778,-138.3836111,375,-2.8,38.25483796,145,8.0019283,48.3042488
"KLU","KGFert","0",1,"KLU_KGFert_0",62,"KLU",61.0702778,-138.3836111,375,-2.8,21.14918981,139.0754827,8.0019283,48.3042488
"KNP","GFP","0",1,"KNP_GFP_0",64,"KNP",-24.3977778,31.7777778,568,22.3,48.37692796,566.63125,8.9871578,490.6393127
"KNZ","BGP","0",1,"KNZ_BGP_0",68,"KNZ",39.08333,-96.5833,875,11.9,145.8513011,424.1174479,4.9686346,933.4368896
"KNZ","EDGE","0",1,"KNZ_EDGE_0",74,"KNZ",39.08333,-96.5833,875,11.9,83.33504102,413,4.9686346,933.4368896
"KNZ","GFP","20B",1,"KNZ_GFP_20B",66,"KNZ",39.08333,-96.5833,875,11.9,56.21925891,490.2714286,4.9686346,933.4368896
"KNZ","GFP","4F",1,"KNZ_GFP_4F",70,"KNZ",39.08333,-96.5833,875,11.9,58.08575303,367.5,4.9686346,933.4368896
"KNZ","GFP","K1B",1,"KNZ_GFP_K1B",73,"KNZ",39.08333,-96.5833,875,11.9,49.60630927,468.5857143,4.9686346,933.4368896
"KNZ","IRG","l",1,"KNZ_IRG_l",72,"KNZ",39.08333,-96.5833,875,11.9,63.54900463,498.2707193,4.9686346,933.4368896
"KNZ","IRG","u",1,"KNZ_IRG_u",71,"KNZ",39.08333,-96.5833,875,11.9,66.81770851,490.9991374,4.9686346,933.4368896
"KNZ","RPHs","0",1,"KNZ_RPHs_0",65,"KNZ",39.08333,-96.5833,875,11.9,63.61360416,627.2675,4.9686346,933.4368896
"KNZ","RaMPs","0",2,"KNZ_RaMPs_0",69,"KNZ",39.08333,-96.5833,875,11.9,83.85490004,772.9624242,4.9686346,933.4368896
"KNZ","change","0",1,"KNZ_change_0",67,"KNZ",39.08333,-96.5833,875,11.9,57.36631752,556.0916667,4.9686346,933.4368896
"KNZ","pplots","0",1,"KNZ_pplots_0",75,"KNZ",39.08333,-96.5833,875,11.9,86.57956036,491.1411765,4.9686346,933.4368896
"KRNP_Lammertjiesleegte","0","0",1,"KRNP_Lammertjiesleegte",278,"KRNP_Lammertjiesleegte",-32.33,22.55,282,17.8,64,NA,17.8971519,123.4443512
"KRNP_Sandrivier","0","0",1,"KRNP_Sandrivier",279,"KRNP_Sandrivier",-32.3,22.3,196,17.6,54,NA,11.4559832,75.0009003
"KUFS","E2","0",1,"KUFS_E2_0",76,"KUFS",39.05,-95.2,973,12.6,96.09746494,130.244,14.6193943,933.4368896
"KUFS","E6","1",1,"KUFS_E6_1",78,"KUFS",39.05,-95.2,973,12.6,126.1272499,268.4333333,14.6193943,933.4368896
"KUFS","E6","2",1,"KUFS_E6_2",77,"KUFS",39.05,-95.2,973,12.6,120.3852619,315.5937778,14.6193943,933.4368896
"Kate Hollow","0","0",1,"Kate Hollow",270,"Kate Hollow",41.33,-111.17,310,3.9,23,NA,11.6445808,297.7605896
"Kenya_Central","0","0",1,"Kenya_Central",271,"Kenya_Central",0.4,36.91,578,18.5,32,1204,7.1110935,450.1618652
"Kenya_North","0","0",1,"Kenya_North",272,"Kenya_North",0.48,36.87,493,18.6,33,512,6.7929726,450.1618652
"Kenya_South","0","0",4,"Kenya_South",273,"Kenya_South",0.28,36.89,625,17.8,35,722,4.9538312,450.1618652
"Konza","0","0",1,"Konza",276,"Konza",39.09,-96.58,835,12,95,525,9.0037947,933.4368896
"KonzaPrairie","0","0",2,"KonzaPrairie",277,"KonzaPrairie",39.09,-96.58,835,12,56,302,9.0037947,933.4368896
"Kruger_Buff","0","0",1,"Kruger_Buff",280,"Kruger_Buff",-24.4,31.78,547,22.3,46,487,9.3291922,490.6393127
"Kruger_Letaba","0","0",1,"Kruger_Letaba",281,"Kruger_Letaba",-23.76,31.43,400,22.8,75,118.4,9.5512533,490.6393127
"Kruger_Marheya","0","0",1,"Kruger_Marheya",282,"Kruger_Marheya",-24.54,31.78,557,22,32,560,5.0569806,490.6393127
"Kruger_Nkuhlu","0","0",4,"Kruger_Nkuhlu",283,"Kruger_Nkuhlu",-24.98,31.77,560,21.9,179,371.7,11.3051214,490.6393127
"Kruger_Nwan","0","0",1,"Kruger_Nwan",284,"Kruger_Nwan",-24.45,31.89,463,22.5,36,500,8.3720074,490.6393127
"Kruger_Satara","0","0",1,"Kruger_Satara",285,"Kruger_Satara",-24.4,31.74,559,22.2,24,609,9.3693504,490.6393127
"LATNJA","CLIP","Heath",1,"LATNJA_CLIP_Heath",79,"LATNJA",68.35999067,18.49587161,617,-2.9,46.50834491,476,0.3430841,160.613739
"LATNJA","CLIP","Meadow",1,"LATNJA_CLIP_Meadow",80,"LATNJA",68.35999067,18.49587161,617,-2.9,82.13925203,383,0.3430841,160.613739
"LEFT","PME","0",1,"LEFT_PME_0",81,"LEFT",40.1166667,-105.3,421,7.6,33.49541088,200.0066667,17.3513546,469.1299133
"LG","HerbWood","0",4,"LG_HerbWood_0",82,"LG",-37.295833,143.0805556,655,12.9,82.59694766,15,10.5878601,238.2455902
"Lapland_Jehkas","0","0",1,"Lapland_Jehkas",286,"Lapland_Jehkas",69.08,20.78,489,-2.1,32,185,14.2485476,160.613739
"Lapland_Saana","0","0",1,"Lapland_Saana",287,"Lapland_Saana",69.05,20.83,489,-3.2,33,185,10.4031982,160.613739
"LasChilcas","0","0",1,"LasChilcas",288,"LasChilcas",-36.5,-58.5,953,14.8,54,530,17.273922,456.0420227
"Lost Park","0","0",1,"Lost Park",289,"Lost Park",41.36,-111.13,409,4,15,NA,11.6459026,297.7605896
"MAERC","0","0",1,"MAERC",290,"MAERC",27.13,-81.2,1364,22.5,25,1104.9,8.5944395,227.4994202
"MNK_16mileTank","0","0",1,"MNK_16mileTank",302,"MNK_16mileTank",35.31,-115.45,184,17.2,7,NA,10.8472881,268.9372253
"MNP_14mileTank","0","0",4,"MNP_14mileTank",303,"MNP_14mileTank",35.36,-115.36,164,18.1,13,NA,10.7336235,268.9372253
"MNP_30","0","0",1,"MNP_30",304,"MNP_30",35.17,-115.46,203,16.4,21,NA,10.7366209,268.9372253
"MNP_TenmileTank","0","0",1,"MNP_TenmileTank",305,"MNP_TenmileTank",35.31,-115.4,181,17.5,14,NA,10.8991194,268.9372253
"MNR","watfer","0",1,"MNR_watfer_0",85,"MNR",38.88766867,-122.4208206,922,12.9,60.77424752,25.37646465,11.3493299,222.7404327
"Mali_Korokodjo","0","0",4,"Mali_Korokodjo",291,"Mali_Korokodjo",15.32,-9.51,427,28.5,48,242.9,24.3381443,186.4070435
"Mali_Lakamane","0","0",3,"Mali_Lakamane",292,"Mali_Lakamane",14.59,-9.94,577,27.9,54,228.4,10.6825504,186.4070435
"Mali_Neguela","0","0",4,"Mali_Neguela",293,"Mali_Neguela",12.88,-8.48,868,27.1,56,420.7,20.542963,455.2952576
"Mali_Tiendaga","0","0",2,"Mali_Tiendaga",294,"Mali_Tiendaga",11.01,-6.81,1132,27.1,72,573.2,7.47611,373.7295227
"Mali_Tiorola","0","0",2,"Mali_Tiorola",295,"Mali_Tiorola",11.61,-7.1,1043,27.2,61,718.2,10.7280502,373.7295227
"Mananga_High","0","0",1,"Mananga_High",296,"Mananga_High",-24.39,31.73,NA,22.2,44,311.4,9.755806,490.6393127
"Mananga_Low","0","0",1,"Mananga_Low",297,"Mananga_Low",-24.38,31.87,NA,22.5,31,92.9,8.0856352,490.6393127
"Manitoba","CCD","0",1,"Manitoba_CCD_0",84,"Manitoba",50.658376,-99.973263,512,0.6,46.01306713,282,23.3485737,553.489502
"Mexico_LaColorada","0","0",1,"Mexico_LaColorada",298,"Mexico_LaColorada",22.03,-102.25,450,17.7,34,114,38.1340141,818.2783203
"Mexico_LaMesa","0","0",2,"Mexico_LaMesa",299,"Mexico_LaMesa",22.03,-102.25,450,17.7,13,100,38.1340141,818.2783203
"Mexico_LaPresa","0","0",1,"Mexico_LaPresa",300,"Mexico_LaPresa",22.03,-102.25,450,17.7,37,132,38.1340141,818.2783203
"Mexico_Vaquerias","0","0",1,"Mexico_Vaquerias",301,"Mexico_Vaquerias",22.03,-102.25,450,17.7,31,88,38.1340141,818.2783203
"Molesworth_CC","0","0",3,"Molesworth_CC",306,"Molesworth_CC",-42.19,172.88,720,6.1,28,NA,4.5923381,59.5954247
"Molesworth_HG","0","0",3,"Molesworth_HG",307,"Molesworth_HG",-42.11,172.91,750,6.1,48,NA,11.1340599,59.5954247
"Molesworth_PT","0","0",4,"Molesworth_PT",308,"Molesworth_PT",-42.31,173.04,780,7.7,21,NA,8.0054655,59.5954247
"Molesworth_SD","0","0",4,"Molesworth_SD",309,"Molesworth_SD",-42.15,172.93,750,7.2,25,NA,7.3781471,59.5954247
"Molesworth_ST","0","0",2,"Molesworth_ST",310,"Molesworth_ST",-42.19,172.78,680,5.7,66,NA,11.3908215,59.5954247
"Molesworth_SW","0","0",3,"Molesworth_SW",311,"Molesworth_SW",-42.14,172.92,680,7.2,17,NA,7.38942,59.5954247
"Mongolia_BGgrassland","0","0",1,"Mongolia_BGgrassland",312,"Mongolia_BGgrassland",43.9,103.5,116,3,23,NA,1.4583684,195.3711548
"Mongolia_Mgairport","0","0",1,"Mongolia_Mgairport",313,"Mongolia_Mgairport",45.75,106.27,130,1.9,18,NA,21.9216709,195.3711548
"Mongolia_Mgshrubland","0","0",1,"Mongolia_Mgshrubland",314,"Mongolia_Mgshrubland",45.78,106.18,121,1.4,28,NA,10.0005922,195.3711548
"Mpala","0","0",1,"Mpala",315,"Mpala",0.29,36.9,514,17.8,45,NA,7.7799306,450.1618652
"NANT","wet","Broad_BRC_M",3,"NANT_wet_Broad_BRC_M",91,"NANT",38.55,-75.73333,1109,13.3,30.7877662,165.9333333,14.0358629,845.0755005
"NANT","wet","Broad_BRC_S",1,"NANT_wet_Broad_BRC_S",87,"NANT",38.55,-75.73333,1109,13.3,34.13743056,22.9351,14.0358629,845.0755005
"NANT","wet","Marshy_BSA_M",4,"NANT_wet_Marshy_BSA_M",92,"NANT",38.55,-75.73333,1109,13.3,30.03599537,282.6,14.0358629,845.0755005
"NANT","wet","Nant-Mrsh_BSA_S",1,"NANT_wet_Nant-Mrsh_BSA_S",90,"NANT",38.55,-75.73333,1109,13.3,62.59718557,37.33333333,14.0358629,845.0755005
"NANT","wet","Nant-Mrsh_TNC_S",1,"NANT_wet_Nant-Mrsh_TNC_S",89,"NANT",38.55,-75.73333,1109,13.3,72.88557695,83.4,14.0358629,845.0755005
"NANT","wet","Nant_TNC_M",4,"NANT_wet_Nant_TNC_M",88,"NANT",38.55,-75.73333,1109,13.3,41.02546296,255.5253333,14.0358629,845.0755005
"NGBER","gb","0",1,"NGBER_gb_0",93,"NGBER",43.4833,-119.7166,285,6.8,18,325.8125,11.824934,216.0787811
"NIN","HerbDiv","0",1,"NIN_HerbDiv_0",94,"NIN",37.53,-97.67,757,13.8,84.21952066,721,17.5354233,643.0072021
"NS_East Light BIO","0","0",3,"NS_East Light BIO",323,"NS_East Light BIO",43.96,-59.83,1511,NA,19,NA,0.681485,251.2418518
"NS_Main Station Dry Heath","0","0",2,"NS_Main Station Dry Heath",324,"NS_Main Station Dry Heath",43.93,-60.01,1511,7.3,26,NA,8.1000404,251.2418518
"NS_Main Station Grassland","0","0",2,"NS_Main Station Grassland",325,"NS_Main Station Grassland",43.93,-60.01,1511,7.3,19,NA,8.1000404,251.2418518
"NS_Main Station Mesic Heath","0","0",2,"NS_Main Station Mesic Heath",326,"NS_Main Station Mesic Heath",43.93,-60.01,1511,7.3,26,NA,8.1000404,251.2418518
"NS_West Light","0","0",1,"NS_West Light",327,"NS_West Light",43.93,-60.02,1511,7.3,19,NA,8.1000404,251.2418518
"NS_Wind Turbine (a)","0","0",2,"NS_Wind Turbine (a)",328,"NS_Wind Turbine (a)",43.93,-60,1511,7.3,21,NA,8.1244965,251.2418518
"NS_Wind Turbine (b)","0","0",1,"NS_Wind Turbine (b)",329,"NS_Wind Turbine (b)",43.93,-60,1511,7.3,25,NA,8.1244965,251.2418518
"NWT","246Nfert","0",1,"NWT_246Nfert_0",99,"NWT",40.05,-105.5833,725,-0.7,57.21319059,125.85,4.6100521,469.1299133
"NWT","ATWE","0",1,"NWT_ATWE_0",95,"NWT",40.05,-105.5833,725,-0.7,20,157.8695017,4.6100521,469.1299133
"NWT","bowman","DryBowman",1,"NWT_bowman_DryBowman",98,"NWT",40.05,-105.5833,725,-0.7,66.11796875,151.684375,4.6100521,469.1299133
"NWT","bowman","WetBowman",1,"NWT_bowman_WetBowman",97,"NWT",40.05,-105.5833,725,-0.7,53.09861883,264.721875,4.6100521,469.1299133
"NWT","snow","0",1,"NWT_snow_0",96,"NWT",40.05,-105.5833,725,-0.7,35.45216435,264.6284722,4.6100521,469.1299133
"N_Clan","0","0",1,"N_Clan",316,"N_Clan",39.82,-117.68,229,9.8,22,NA,11.8571377,222.7404327
"N_Pryor","0","0",1,"N_Pryor",317,"N_Pryor",45.06,-108.26,352,6.2,66,NA,12.5729866,339.6396484
"N_Spring","0","0",2,"N_Spring",318,"N_Spring",37.96,-108.6,413,7.7,46,NA,11.0746746,274.468689
"N_Sulphur","0","0",1,"N_Sulphur",319,"N_Sulphur",38.61,-113.88,332,8.2,20,NA,3.6473281,225.948288
"N_Theodore","0","0",2,"N_Theodore",320,"N_Theodore",46.96,-103.35,389,6,111,NA,12.1827335,423.0978088
"Naiman","Nprecip","0",1,"Naiman_Nprecip_0",86,"Naiman",43.91684682,120.6999893,384,6.6,27.62126157,128.5146667,16.2049751,1131.149902
"Neponset","0","0",1,"Neponset",321,"Neponset",37.97,-109.61,286,9.5,26,NA,10.253376,274.468689
"North Cottonwood","0","0",2,"North Cottonwood",322,"North Cottonwood",38.17,-109.72,332,11.8,25,NA,11.4692717,297.7605896
"ORNL","FACE","0",2,"ORNL_FACE_0",100,"ORNL",35.9,-84.333,1363,13.9,67.63968432,169.03125,20.1102867,745.309021
"PIE","TIDE","0",1,"PIE_TIDE_0",101,"PIE",42.75,-70.8666667,1155,9.1,8,1001.888889,25.1941929,522.0855103
"Park Pasture","0","0",4,"Park Pasture",330,"Park Pasture",37.95,-109.71,213,8.4,27,NA,10.4919691,274.468689
"Pniel","0","0",1,"Pniel",331,"Pniel",-28.58,24.43,360,18.3,8,NA,8.702219,318.9831238
"RIO","interaction","0",1,"RIO_interaction_0",103,"RIO",-45.6833333,-70.266666,192,9.5,9.797777778,57.26866667,30.2035313,71.6097488
"Rengen","Nut","0",4,"Rengen_Nut_0",102,"Rengen",50.216667,6.85,841,7.6,84.06597222,250,24.0824394,1476.593506
"SCL","Lucero","0",1,"SCL_Lucero_0",106,"SCL",-35.8833,-61.0833,980,15.4,93.25848867,903.7,2.9886568,456.0420227
"SCL","TER","0",1,"SCL_TER_0",105,"SCL",-35.8833,-61.0833,980,15.4,127.4006871,675.51,2.9886568,456.0420227
"SERC","CXN","0",1,"SERC_CXN_0",110,"SERC",38.874201,-76.549482,1068,13.2,3,666.3939907,17.3590374,845.0755005
"SERC","TMECE","MX",1,"SERC_TMECE_MX",108,"SERC",38.874201,-76.549482,1068,13.2,5.125972222,766.44,17.3590374,845.0755005
"SERC","TMECE","SC",1,"SERC_TMECE_SC",109,"SERC",38.874201,-76.549482,1068,13.2,7.221203704,843.03,17.3590374,845.0755005
"SERC","TMECE","SP",1,"SERC_TMECE_SP",107,"SERC",38.874201,-76.549482,1068,13.2,6.570486111,777.75,17.3590374,845.0755005
"SEV","EDGE","black_gramma",1,"SEV_EDGE_black_gramma",112,"SEV",34.4,-106.6666667,245,12.7,67.12090664,66,9.8904037,399.7457886
"SEV","EDGE","blue_gramma",1,"SEV_EDGE_blue_gramma",111,"SEV",34.4,-106.6666667,245,12.7,79.66919947,98,9.8904037,399.7457886
"SEV","Nfert","0",1,"SEV_Nfert_0",113,"SEV",34.4,-106.6666667,245,12.7,72.70414282,69.86554444,9.8904037,399.7457886
"SEV","WENNDEx","0",1,"SEV_WENNDEx_0",114,"SEV",34.4,-106.6666667,245,12.7,60.23982639,89.13483333,9.8904037,399.7457886
"SFREC","GrazePrecip","G2",1,"SFREC_GrazePrecip_G2",116,"SFREC",39.25,-121.283,1010,15.2,47.81944444,323,13.1164494,222.7404327
"SFREC","GrazePrecip","G4",2,"SFREC_GrazePrecip_G4",115,"SFREC",39.25,-121.283,1010,15.2,27.2962963,323,13.1164494,222.7404327
"SGS","0","0",1,"SGS",340,"SGS",40.82,-104.77,322,8.4,48,91,10.1270828,469.1299133
"SGS","Drought","0",1,"SGS_Drought_0",118,"SGS",40.822515,-104.565975,365,8.3,47.94380015,90,10.3346319,469.1299133
"SGS","EDGE","0",1,"SGS_EDGE_0",117,"SGS",40.822515,-104.565975,365,8.3,66.51724204,94,10.3346319,469.1299133
"SGS","Irg","0",1,"SGS_Irg_0",120,"SGS",40.822515,-104.565975,365,8.3,42.76003472,90,10.3346319,469.1299133
"SGS","change","0",1,"SGS_change_0",119,"SGS",40.822515,-104.565975,365,8.3,63.4014052,110.325,10.3346319,469.1299133
"SIU","TON","0",1,"SIU_TON_0",121,"SIU",37.616667,-89.15,1177,13,116.0543478,427.71125,9.8875284,745.6395264
"SKY","UK","0",3,"SKY_UK_0",122,"SKY",38.1666667,-84.81667,1143,12.5,26.10173611,253.1112,40.8530464,977.4589844
"SR","Nitrogen","A",1,"SR_Nitrogen_A",124,"SR",34.696744,-120.040803,505,15,39.08644676,284.9900394,10.7349033,354.2384033
"SR","Nitrogen","P",1,"SR_Nitrogen_P",123,"SR",34.696744,-120.040803,505,15,36.87082176,192.7103003,10.7349033,354.2384033
"SR","Water","A",2,"SR_Water_A",125,"SR",34.696744,-120.040803,505,15,36.36115741,306.3858273,10.7349033,354.2384033
"SR","Water","P",2,"SR_Water_P",126,"SR",34.696744,-120.040803,505,15,38.47986111,254.457204,10.7349033,354.2384033
"SVA","GANE","0",1,"SVA_GANE_0",127,"SVA",78.9333333,11.83333,381,-5.4,23.51347222,1.5,8.015422,73.1705704
"Salt Creek Mesa","0","0",2,"Salt Creek Mesa",332,"Salt Creek Mesa",38.92,-109.2,320,11.4,23,NA,12.4220505,297.7605896
"Sand Flat","0","0",2,"Sand Flat",333,"Sand Flat",37.96,-109.89,225,9.5,28,NA,10.9604969,274.468689
"Saskatchewan","CCD","0",1,"Saskatchewan_CCD_0",104,"Saskatchewan",49.341212,-104.655322,353,3.7,40.78477431,132,15.9171257,465.4897766
"Satara North_High","0","0",1,"Satara North_High",334,"Satara North_High",-24.39,31.85,NA,22.5,21,769.1,8.1110497,490.6393127
"Satara North_Low","0","0",1,"Satara North_Low",335,"Satara North_Low",-24.39,31.73,NA,22.2,26,504.1,9.755806,490.6393127
"Satara South_High","0","0",1,"Satara South_High",336,"Satara South_High",-24.54,31.85,NA,22.2,21,790.3,6.0030842,490.6393127
"Satara South_Low","0","0",1,"Satara South_Low",337,"Satara South_Low",-24.4,31.73,NA,22.2,26,552.9,9.7600594,490.6393127
"Serengeti_Nutnet","0","0",1,"Serengeti_Nutnet",339,"Serengeti_Nutnet",-2.25,34.51,789,22.1,23,166,8.6424208,265.1708069
"Shibotawna_High","0","0",2,"Shibotawna_High",341,"Shibotawna_High",-24.4,31.74,NA,22.2,31,516.9,9.3693504,490.6393127
"Shibotawna_Low","0","0",1,"Shibotawna_Low",342,"Shibotawna_Low",-24.38,31.87,NA,22.5,16,135,8.0856352,490.6393127
"Spain_ChapineriaHP","0","0",1,"Spain_ChapineriaHP",343,"Spain_ChapineriaHP",40.38,-4.2,433,13.8,56,837,36.6284637,454.5309143
"Spain_ChapineriaLP","0","0",1,"Spain_ChapineriaLP",344,"Spain_ChapineriaLP",40.38,-4.2,433,13.8,42,230,36.6284637,454.5309143
"Stanley Park","0","0",1,"Stanley Park",345,"Stanley Park",38.78,-109.08,322,10.7,24,NA,11.467659,297.7605896
"Steamboat Mesa","0","0",2,"Steamboat Mesa",346,"Steamboat Mesa",37.59,-109.76,345,9.5,20,NA,9.5398121,274.468689
"SwissNP_Short","0","0",1,"SwissNP_Short",347,"SwissNP_Short",46.67,10.25,850,-1.3,113,401,6.5337582,1479.478516
"SwissNP_Tall","0","0",1,"SwissNP_Tall",348,"SwissNP_Tall",46.67,10.25,850,-1.3,117,500,6.5337582,1479.478516
"TAS","FACE","0",1,"TAS_FACE_0",128,"TAS",-42.7,147.2666667,557,12.1,73.52459491,285,35.5152588,56.7514267
"TRA","Lovegrass","0",1,"TRA_Lovegrass_0",129,"TRA",-27.7357,151.14,682,18.4,40.25508873,750,3.8923032,255.264267
"Texas Flat","0","0",1,"Texas Flat",349,"Texas Flat",41.33,-111.24,338,4,25,NA,11.6434536,297.7605896
"The Dip","0","0",2,"The Dip",350,"The Dip",37.65,-109.99,390,9.4,25,NA,9.7852106,274.468689
"Tibet_Site10_Gegyai_Xiongbar","0","0",1,"Tibet_Site10_Gegyai_Xiongbar",352,"Tibet_Site10_Gegyai_Xiongbar",32.08,81.83,120,-1,8,NA,5.3244863,1539.635986
"Tibet_Site11_Amdo_Guozur","0","0",1,"Tibet_Site11_Amdo_Guozur",353,"Tibet_Site11_Amdo_Guozur",31.72,91.81,494,-2.2,23,NA,14.0311146,1066.313721
"Tibet_Site12_Amdo_Marluo","0","0",1,"Tibet_Site12_Amdo_Marluo",354,"Tibet_Site12_Amdo_Marluo",32.3,91.91,484,-3.2,33,NA,7.1574588,1066.313721
"Tibet_Site13_Nagqu_Nagqu","0","0",1,"Tibet_Site13_Nagqu_Nagqu",355,"Tibet_Site13_Nagqu_Nagqu",31.68,92.03,508,-1.8,21,NA,13.5884304,1066.313721
"Tibet_Site14_Nagqu_Namarqie","0","0",1,"Tibet_Site14_Nagqu_Namarqie",356,"Tibet_Site14_Nagqu_Namarqie",31.59,91.49,475,-1.3,11,NA,13.8722878,1066.313721
"Tibet_Site15_Bangoin_Beilar","0","0",1,"Tibet_Site15_Bangoin_Beilar",357,"Tibet_Site15_Bangoin_Beilar",31.42,91.02,450,-0.9,27,NA,14.1426249,1066.313721
"Tibet_Site16_Bangoin_Pubao2","0","0",2,"Tibet_Site16_Bangoin_Pubao2",358,"Tibet_Site16_Bangoin_Pubao2",31.41,90.25,400,-1.4,16,NA,6.5117497,1066.313721
"Tibet_Site17_Shuanghu_Shuanghu","0","0",1,"Tibet_Site17_Shuanghu_Shuanghu",359,"Tibet_Site17_Shuanghu_Shuanghu",33.21,88.8,292,-4.4,9,NA,4.4517207,151.9635468
"Tibet_Site18_Nyima_Erjiu2","0","0",1,"Tibet_Site18_Nyima_Erjiu2",360,"Tibet_Site18_Nyima_Erjiu2",32.34,86.65,245,-0.8,5,NA,8.1212721,964.0997925
"Tibet_Site19_Nyima_Zhongcang2","0","0",2,"Tibet_Site19_Nyima_Zhongcang2",361,"Tibet_Site19_Nyima_Zhongcang2",32.01,85.41,220,-2.2,11,NA,10.0483131,964.0997925
"Tibet_Site1_Amdo_Bangai","0","0",1,"Tibet_Site1_Amdo_Bangai",351,"Tibet_Site1_Amdo_Bangai",32.27,91.92,484,-2.6,29,NA,4.8624563,1066.313721
"Tibet_Site20_Gerze_DongcuoTemple","0","0",1,"Tibet_Site20_Gerze_DongcuoTemple",363,"Tibet_Site20_Gerze_DongcuoTemple",31.98,85.08,212,-0.7,14,NA,8.462739,964.0997925
"Tibet_Site21_Gerze_Dongcuo","0","0",1,"Tibet_Site21_Gerze_Dongcuo",364,"Tibet_Site21_Gerze_Dongcuo",32.25,84.37,180,-0.8,8,NA,8.9168644,964.0997925
"Tibet_Site22_Gerze_Gerze","0","0",1,"Tibet_Site22_Gerze_Gerze",365,"Tibet_Site22_Gerze_Gerze",32.29,84.05,170,-0.4,9,NA,8.2339859,964.0997925
"Tibet_Site23_Gegyai_Wenbudangsang","0","0",2,"Tibet_Site23_Gegyai_Wenbudangsang",366,"Tibet_Site23_Gegyai_Wenbudangsang",32.08,82.91,150,-3.9,7,NA,1.0273652,964.0997925
"Tibet_Site24_Gegyai_Xiongbar2","0","0",1,"Tibet_Site24_Gegyai_Xiongbar2",367,"Tibet_Site24_Gegyai_Xiongbar2",32.08,81.82,120,-1,8,NA,9.2342949,1539.635986
"Tibet_Site25_Rutog_Rusong","0","0",1,"Tibet_Site25_Rutog_Rusong",368,"Tibet_Site25_Rutog_Rusong",33.27,79.71,45,-2.4,3,NA,8.5102396,156.5907745
"Tibet_Site2_Amdo_Cuomar","0","0",1,"Tibet_Site2_Amdo_Cuomar",362,"Tibet_Site2_Amdo_Cuomar",32.3,91.48,468,-4.3,29,NA,7.6574736,1066.313721
"Tibet_Site3_Bangoin_Pengcuo_South","0","0",1,"Tibet_Site3_Bangoin_Pengcuo_South",369,"Tibet_Site3_Bangoin_Pengcuo_South",31.42,91.02,448,-0.9,19,NA,14.1426249,1066.313721
"Tibet_Site4_Bangoin_Pubao","0","0",2,"Tibet_Site4_Bangoin_Pubao",370,"Tibet_Site4_Bangoin_Pubao",31.39,90.31,405,-1.3,22,NA,11.4464636,1066.313721
"Tibet_Site5_Bangoin_Marqian","0","0",2,"Tibet_Site5_Bangoin_Marqian",371,"Tibet_Site5_Bangoin_Marqian",31.83,89.93,376,-1.4,16,NA,9.2681494,1066.313721
"Tibet_Site6_Shuanghu_Beicuo","0","0",1,"Tibet_Site6_Shuanghu_Beicuo",372,"Tibet_Site6_Shuanghu_Beicuo",33.24,87.71,250,-3.9,9,NA,8.6481171,151.9635468
"Tibet_Site7_Nyima_Erjiu","0","0",1,"Tibet_Site7_Nyima_Erjiu",373,"Tibet_Site7_Nyima_Erjiu",31.94,86.89,258,-0.2,6,NA,9.085247,964.0997925
"Tibet_Site8_Nyima_Arsuo","0","0",1,"Tibet_Site8_Nyima_Arsuo",374,"Tibet_Site8_Nyima_Arsuo",31.94,86.62,258,-0.9,8,NA,8.1405878,964.0997925
"Tibet_Site9_Nyima_Zhongcang","0","0",1,"Tibet_Site9_Nyima_Zhongcang",375,"Tibet_Site9_Nyima_Zhongcang",31.97,85.12,225,-0.5,9,NA,8.3983612,964.0997925
"Tierber_Karoo_Research_Centre","0","0",1,"Tierber_Karoo_Research_Centre",376,"Tierber_Karoo_Research_Centre",-33.22,22.35,176,14.7,16,NA,4.303051,75.0009003
"VictoriaRiverResearchStation","0","0",1,"VictoriaRiverResearchStation",377,"VictoriaRiverResearchStation",-16.07,130.95,780,27.5,20,108,4.0004387,233.3781281
"Washington_LTMurray","0","0",4,"Washington_LTMurray",378,"Washington_LTMurray",48,-120.83,569,4.7,29,22,4.0632463,247.0965118
"Washington_OakCreek","0","0",4,"Washington_OakCreek",379,"Washington_OakCreek",46.72,-120.82,526,7.7,45,199.5,12.9336214,216.0787811
"Washington_Sinlahekin","0","0",3,"Washington_Sinlahekin",380,"Washington_Sinlahekin",48.72,-120.65,737,0.6,64,97,4.5959225,247.0965118
"Washington_Wenas","0","0",4,"Washington_Wenas",381,"Washington_Wenas",46.82,-120.65,526,7.5,27,13,11.9079132,216.0787811
"Westwater","0","0",1,"Westwater",382,"Westwater",39.19,-109.2,242,10.8,20,NA,18.9512463,297.7605896
"Wild Cow Point","0","0",3,"Wild Cow Point",383,"Wild Cow Point",37.92,-109.95,349,9.3,25,NA,10.3598557,274.468689
"YMN","NitAdd","0",1,"YMN_NitAdd_0",131,"YMN",36.25,106.41,451,6.2,48.81452441,196.4816667,10.2705278,1834.01355
"abisko.se","0","0",1,"abisko.se",384,"abisko.se",68.319867,18.740062,390,-0.804166615,19,113.11,1.0581317,160.613739
"ahth.is","0","0",1,"ahth.is",385,"ahth.is",65.13335,-19.67206,615,0.833333294,58,158.726325,8.0469894,94.7657242
"ains_dn.uk","0","0",2,"ains_dn.uk",386,"ains_dn.uk",53.59,-3.07,807,9.816666683,38,370.625,28.4049702,692.541626
"aish.ca","0","0",1,"aish.ca",387,"aish.ca",61.5653,-137.28284,246,-3.466666593,32,112.155,12,59.1627655
"amcamp.us","0","0",1,"amcamp.us",388,"amcamp.us",48.46504064,-123.0143109,580,10.00000001,26,441.0070733,18.521286,224.0832367
"amlr.is","0","0",1,"amlr.is",389,"amlr.is",65.13335,-19.67206,615,0.833333294,37,12.113075,8.0469894,94.7657242
"anti.ec","0","0",1,"anti.ec",390,"anti.ec",-0.467083333,-78.162,846,2.425000002,64,1282.8125,3.941396,574.4157715
"arch.us","0","0",1,"arch.us",391,"arch.us",27.17034,-81.21828,1205,22.73333335,82,388.9983333,2.1501467,227.4994202
"arde.ir","0","0",1,"arde.ir",392,"arde.ir",38.85485507,47.78073504,449,10.06666666,237,92.00366884,12.0367622,400.3489685
"azi.cn","0","0",4,"azi.cn",393,"azi.cn",33.67,101.87,711,1.362500006,88,361.1691667,13.8380547,1045.707642
"azitwo.cn","0","0",1,"azitwo.cn",394,"azitwo.cn",33.58,101.53,733,-1.12083332,109,325.485688,9.0963058,1045.707642
"badlau.de","0","0",1,"badlau.de",395,"badlau.de",51.392138,11.877969,523,9.329166727,72,384.8850833,37.8599472,1475.484863
"bari.ar","0","0",1,"bari.ar",396,"bari.ar",-41.00644,-71.15323,787,8.787500066,40,207.3658333,4.3956652,114.403801
"barta.us","0","0",1,"barta.us",397,"barta.us",42.244586,-99.6518,581,9.066666578,55,225.3733333,6.5036454,780.62323
"bayr.de","0","0",1,"bayr.de",398,"bayr.de",49.91666667,11.58333333,745,8.508333363,72,162.6522292,24.030653,1475.484863
"bldr.us","0","0",1,"bldr.us",399,"bldr.us",39.972022,-105.233544,487,9.904166626,49,136.12625,43.7494888,469.1299133
"bnbt.us","0","0",1,"bnbt.us",400,"bnbt.us",39.597007,-95.086276,944,12.39166659,58,893.3861111,23.0694714,933.4368896
"bnch.us","0","0",1,"bnch.us",401,"bnch.us",44.27668543,-121.9680169,1618,6.770833284,60,268.9700001,8.0125771,216.0787811
"bogong.au","0","0",1,"bogong.au",402,"bogong.au",-36.874,147.254,1678,5.983333338,46,527.1584222,12.1058798,218.6474762
"bttr.us","0","0",4,"bttr.us",403,"bttr.us",44.281312,-121.94836,1623,6.499999925,66,231.3333342,8.0450287,216.0787811
"bunya.au","0","0",1,"bunya.au",404,"bunya.au",-26.892138,151.606667,817,15.48749996,17,1233.2155,8.5247698,192.3121185
"burrawan.au","0","0",1,"burrawan.au",405,"burrawan.au",-27.736138,151.139131,643,18.2249999,43,199.1190694,3.8923032,255.264267
"burren.ie","0","0",1,"burren.ie",406,"burren.ie",53.072023,-8.992624,1320,9.766666715,82,466.0844444,10.6343393,439.7623901
"bynb.cn","0","0",4,"bynb.cn",407,"bynb.cn",42.8847,82.7088,394,-6.566666729,17,109.0333333,1.7372631,273.6609802
"cammead.us","0","0",2,"cammead.us",408,"cammead.us",47.4725,-120.583828,653,6.608333242,17,156.121,8.8053961,216.0787811
"cbgb.us","0","0",1,"cbgb.us",409,"cbgb.us",41.78506667,-93.38538333,871,9.258333459,104,409.6848542,20.5506706,933.4368896
"cdcr.us","0","0",1,"cdcr.us",410,"cdcr.us",45.425,-93.2115,740,6.337500023,124,175.6922867,11.9094782,897.5437012
"cdpt.us","0","0",1,"cdpt.us",411,"cdpt.us",41.206,-101.643,456,9.637500077,85,161.2706278,8.5513105,780.62323
"cedr.us","0","0",1,"cedr.us",412,"cedr.us",45.404149,-93.200656,740,6.337500023,43,292.8166667,15.3766022,897.5437012
"cereep.fr","0","0",1,"cereep.fr",413,"cereep.fr",48.28,2.66,632,10.81666666,143,523.7215152,20.7824402,1476.593506
"chilcas.ar","0","0",1,"chilcas.ar",414,"chilcas.ar",-36.275556,-58.265556,955,15.09166658,104,586.2433333,13.9423313,456.0420227
"chur_dn.us","0","0",1,"chur_dn.us",415,"chur_dn.us",47.1790273,-88.6147752,810,4.825000058,43,302.45875,12.6334248,816.6661377
"colhill.us","0","0",1,"colhill.us",416,"colhill.us",45.706047,-121.068688,584,9.695833377,26,64.277,6.0462995,216.0787811
"comp.pt","0","0",1,"comp.pt",417,"comp.pt",38.82928,-8.791406,564,16.58333332,104,262.8807333,8.4309464,351.6945801
"cowi.ca","0","0",1,"cowi.ca",418,"cowi.ca",48.8088,-123.6301,762,10.44583333,28,475.4432889,32.258316,224.0832367
"derr.au","0","0",1,"derr.au",419,"derr.au",-37.80694444,144.7913889,565,14.76666677,19,123.1666667,28.2165852,238.2455902
"doane.us","0","0",1,"doane.us",420,"doane.us",40.6954,-96.8541,739,10.64999998,41,248.9673077,11.505043,933.4368896
"drake.za","0","0",1,"drake.za",421,"drake.za",-28.96104204,29.267586,1134,14.35833343,28,318.2166667,9.160696,453.3308411
"elkh.us","0","0",4,"elkh.us",422,"elkh.us",36.867861,-121.739944,815,14.12916663,22,953.9333333,43.1867828,354.2384033
"elliot.us","0","0",1,"elliot.us",423,"elliot.us",32.875,-117.052243,344,17.7124999,55,313.3120641,15.1579638,175.4421692
"elva.ee","0","0",1,"elva.ee",424,"elva.ee",58.2582861,26.35386,638,5.40833336,51,309.28,20.0947094,597.4761963
"ethamc.au","0","0",1,"ethamc.au",425,"ethamc.au",-23.7563333,138.4742833,192,24.0625,45,108.7186667,2.4789438,110.9257736
"ethass.au","0","0",1,"ethass.au",426,"ethass.au",-23.63861,138.39897,203,23.95000007,46,730.2736667,2.8501887,110.9257736
"fnly.us","0","0",1,"fnly.us",427,"fnly.us",44.404451,-123.348578,1226,11.63333345,64,257.5052624,9.5393295,199.456955
"frue.ch","0","0",4,"frue.ch",428,"frue.ch",47.114227,8.540831,1546,6.958333276,40,770.6391667,20.9215221,1479.478516
"gall.it","0","0",1,"gall.it",429,"gall.it",43.7971,10.7185,900,14.34166675,53,298.5,29.9414616,1479.478516
"gce_brackish.us","0","0",1,"gce_brackish.us",430,"gce_brackish.us",31.351333,-81.334667,1304,19.65833342,20,957.6186047,0.5009896,401.4907227
"gce_fresh.us","0","0",1,"gce_fresh.us",431,"gce_fresh.us",31.335167,-81.478667,1290,19.57083335,18,742.9225806,13.4275122,401.4907227
"gce_salt.us","0","0",1,"gce_salt.us",432,"gce_salt.us",31.519,-81.229667,1305,19.49583348,6,508.3618182,12.67134,401.4907227
"gilb.za","0","0",1,"gilb.za",433,"gilb.za",-29.28424,30.29174,943,14.14166671,89,237.6593333,12.4505749,453.3308411
"glac.us","0","0",1,"glac.us",434,"glac.us",46.86877222,-123.0343556,1354,10.54999986,17,164.6686517,19.8641205,199.456955
"glacphr.us","0","0",1,"glacphr.us",435,"glacphr.us",46.870722,-123.053588,1377,10.52500004,35,460.3205,24.4380226,199.456955
"glcr.us","0","0",1,"glcr.us",436,"glcr.us",41.339206,-96.13964,771,10.16250006,28,504.8055556,42.3704491,933.4368896
"hall.us","0","0",1,"hall.us",437,"hall.us",36.871944,-86.70167,1289,13.82916669,53,518.5583333,37.2923088,745.309021
"hart.us","0","0",1,"hart.us",438,"hart.us",42.723745,-119.49767,259,7.749999896,48,88.61111111,11.7745476,222.7404327
"hast.us","0","0",1,"hast.us",439,"hast.us",36.38809,-121.549972,975,11.37500005,32,163.2583328,8.7048197,354.2384033
"hero.uk","0","0",1,"hero.uk",440,"hero.uk",51.411,-0.639,668,10.17083331,77,508.9494588,28.7961922,976.9347534
"hiko.ir","0","0",1,"hiko.ir",441,"hiko.ir",35.94665964,53.2899,207,3.787499971,136,119.0299898,10.4774771,254.9746704
"hnvr.us","0","0",2,"hnvr.us",442,"hnvr.us",43.698655,-72.230188,1044,6.487500033,46,347.2708333,22.3259506,498.75177
"hogone.us","0","0",4,"hogone.us",443,"hogone.us",37.417,-75.686,1042,14.71249998,29,322.0666667,0.266709,551.520874
"hogtwo.us","0","0",1,"hogtwo.us",444,"hogtwo.us",37.417,-75.686,1042,14.71249998,23,NA,0.266709,551.520874
"hopl.us","0","0",1,"hopl.us",445,"hopl.us",39.01275343,-123.0603134,1065,13.2416667,128,235.014643,15.2879009,234.5391235
"hustai.mn","0","0",1,"hustai.mn",446,"hustai.mn",47.66652778,105.9677778,243,-0.49583337,53,258.1875,12.1121855,195.3711548
"jash.ir","0","0",1,"jash.ir",447,"jash.ir",35.78325667,53.17170333,185,7.70416672,29,84.546,9.2047243,254.9746704
"jasp.us","0","0",1,"jasp.us",448,"jasp.us",37.40500045,-122.2411342,574,13.85833322,34,298.2533333,18.3371391,354.2384033
"jena.de","0","0",1,"jena.de",449,"jena.de",50.938,11.528347,654,8.570833226,74,334.6221333,36.7798958,1475.484863
"jorn.us","0","0",1,"jorn.us",450,"jorn.us",32.54434074,-106.8108509,275,15.40416674,35,237.4433333,10.6174984,299.6559143
"kark.se","0","0",1,"kark.se",451,"kark.se",68.392169,18.323098,758,-1.737500047,35,100.155,0.8933744,160.613739
"kbs.us","0","0",1,"kbs.us",452,"kbs.us",42.408986,-85.3909,903,8.795833436,79,537.645125,24.3968544,977.4589844
"khos.ir","0","0",1,"khos.ir",453,"khos.ir",35.44374,50.66840667,236,16.26249986,31,83.24,7.0000701,480.7709045
"kibber.in","0","0",1,"kibber.in",454,"kibber.in",32.31972667,78.00954,400,-1.454166631,37,37.13333333,10.9348993,1539.635986
"kidman.au","0","0",1,"kidman.au",455,"kidman.au",-16.10846,130.9531,724,27.2583334,59,364.6835,1.3399652,233.3781281
"kilp.fi","0","0",1,"kilp.fi",456,"kilp.fi",69.0567,20.8747,569,-3.250000015,125,181.9470468,12.1352043,160.613739
"kiny.au","0","0",1,"kiny.au",457,"kiny.au",-36.2,143.75,408,15.59166652,117,163.4060606,15.326128,218.6474762
"kirik.ee","0","0",4,"kirik.ee",458,"kirik.ee",58.71,23.795,620,6.162500057,84,179.6343333,13.4582539,597.4761963
"klua.ca","0","0",1,"klua.ca",459,"klua.ca",61.03645,-138.38266,382,-2.429166694,19,236.38,12.1685219,48.3042488
"koffler.ca","0","0",1,"koffler.ca",460,"koffler.ca",44.024047,-79.535881,853,6.279166656,53,659.9646111,30.3274117,827.0494385
"konz.us","0","0",1,"konz.us",461,"konz.us",39.070856,-96.582821,889,12.07500006,98,444.4076923,8.8303547,933.4368896
"konzn1b.us","0","0",1,"konzn1b.us",462,"konzn1b.us",39.080936,-96.564825,892,12.01249998,68,285.865,8.9912672,933.4368896
"kord.ir","0","0",1,"kord.ir",463,"kord.ir",35.95634333,50.85471333,261,13.08750018,35,46.16633333,20.9617386,480.7709045
"lac.ca","0","0",2,"lac.ca",464,"lac.ca",50.88074,-120.44878,589,3.199999996,33,204.265,4.6180544,247.0965118
"lagoas.br","0","0",1,"lagoas.br",465,"lagoas.br",-20.982778,-51.798889,1145,23.20416669,34,240.0625,34.2626266,733.0216675
"lake.us","0","0",1,"lake.us",466,"lake.us",43.384683,-95.181052,726,7.287500044,89,592.5678571,24.2455883,897.5437012
"lakta.se","0","0",4,"lakta.se",467,"lakta.se",68.402304,18.448063,390,-0.804166615,28,230.83,1.7139158,160.613739
"lancaster.uk","0","0",1,"lancaster.uk",468,"lancaster.uk",53.98562471,-2.628417566,1522,8.008333346,34,108.9168333,5.9796925,692.541626
"lasm.ir","0","0",1,"lasm.ir",469,"lasm.ir",35.80866629,52.20467543,203,6.004166623,131,70.12571429,30.3658371,480.7709045
"lazo.ir","0","0",1,"lazo.ir",470,"lazo.ir",35.86194,52.62122,201,5.720833272,50,170.0293333,5.5287728,254.9746704
"lead.us","0","0",2,"lead.us",471,"lead.us",46.6149,-124.0484,2224,10.89583328,13,467.3916667,6.897961,199.456955
"look.us","0","0",1,"look.us",472,"look.us",44.20517707,-122.1284473,1877,6.895833333,57,222.6079538,4.0504203,216.0787811
"lubb.us","0","0",1,"lubb.us",473,"lubb.us",33.60001,-101.89765,480,15.84583325,20,99.30283333,36.0133171,643.0072021
"maerc","fireplots","0",1,"maerc_fireplots_0",83,"maerc",27.154592,-81.197218,1203,22.5,34.99404514,860.3305221,2.0446289,227.4994202
"marc.ar","0","0",1,"marc.ar",474,"marc.ar",-37.71516,-57.42451,907,14.31666676,68,682.266455,19.0511189,126.0132675
"marcel.us","0","0",1,"marcel.us",475,"marcel.us",47.229916,-118.408463,306,9.045833339,11,64.914,19.5011272,216.0787811
"mars.ca","0","0",1,"mars.ca",476,"mars.ca",60.55579,-134.4292,253,-0.979166771,30,273.025,12.7840185,59.1627655
"mcdan.us","0","0",1,"mcdan.us",477,"mcdan.us",39.528033,-77.04138,1085,11.62083337,92,441.9020833,32.5019875,845.0755005
"mcla.us","0","0",1,"mcla.us",478,"mcla.us",38.86427212,-122.4064063,936,13.97083341,80,276.6595232,17.2862701,222.7404327
"meto.us","0","0",1,"meto.us",479,"meto.us",37.417,-75.686,1042,14.71249998,19,NA,0.263664,551.520874
"mitch.au","0","0",1,"mitch.au",480,"mitch.au",-22.483584,143.323501,421,24.45416673,17,459.295,10.8403292,143.8786469
"mmounds.us","0","0",4,"mmounds.us",481,"mmounds.us",46.89134,-123.060965,1413,10.3875001,32,407.9495,20.698019,199.456955
"moab.us","0","0",2,"moab.us",482,"moab.us",38.782,-109.652,244,11.66666669,23,18.23333333,6.8204474,297.7605896
"mrapids.us","0","0",1,"mrapids.us",483,"mrapids.us",48.033488,-119.891601,279,10.29999983,15,63.768,16.9848003,247.0965118
"msla.us","0","0",1,"msla.us",484,"msla.us",46.664613,-114.0005227,340,7.316666628,62,159.6304348,9.1776562,259.0683289
"msla_2.us","0","0",1,"msla_2.us",485,"msla_2.us",46.664887,-114.001321,340,7.316666628,45,102.7395833,9.1776562,259.0683289
"msla_3.us","0","0",4,"msla_3.us",486,"msla_3.us",46.664744,-114.001678,340,7.316666628,50,92.568,9.1776562,259.0683289
"msum.us","0","0",1,"msum.us",487,"msum.us",46.86962418,-96.45352319,556,4.987500096,47,309.3291667,24.9485741,897.5437012
"mtca.au","0","0",1,"mtca.au",488,"mtca.au",-31.782138,117.610853,324,17.74583335,79,175.4526786,16.9397392,81.3067474
"nap.ca","0","0",1,"nap.ca",489,"nap.ca",50.44944,-120.31672,390,4.987500094,26,268.61,5.2365613,247.0965118
"neba.jp","0","0",1,"neba.jp",490,"neba.jp",35.23214,137.662489,2114,8.691666648,82,312.1258214,14.9371815,733.5625
"nilla.au","0","0",1,"nilla.au",491,"nilla.au",-36.896,146.007,947,13.7833333,32,152.4029048,10.8102789,218.6474762
"niwo.us","0","0",1,"niwo.us",492,"niwo.us",39.993,-105.375,446,6.579166642,42,121.735,15.053299,469.1299133
"ovor.mn","0","0",1,"ovor.mn",493,"ovor.mn",47.7688333,106.8850333,275,-1.487499878,47,177.7666667,11.9962282,195.3711548
"ozin.ir","0","0",1,"ozin.ir",494,"ozin.ir",35.65668667,52.44417667,181,9.279166674,35,58.18633333,18.7072067,480.7709045
"pape.de","0","0",1,"pape.de",495,"pape.de",53.086,7.4728,788,9.120833286,14,948.8142857,19.6201057,977.6321411
"pich.ec","0","0",1,"pich.ec",496,"pich.ec",-0.131550788,-78.57326091,2566,21.79583343,70,814.9928571,12.4300489,574.4157715
"ping.au","0","0",1,"ping.au",497,"ping.au",-32.496169,116.972947,456,16.27916669,25,254.8022963,11.5508709,61.0226746
"pinj.au","0","0",1,"pinj.au",498,"pinj.au",-27.530556,152.923222,1085,19.99166675,34,748.8666667,27.5887146,98.8913651
"podo.ec","0","0",1,"podo.ec",499,"podo.ec",-4.11,-79.16,1105,11.14583331,66,959.97,2.9739602,398.1607361
"potrok.ar","0","0",1,"potrok.ar",500,"potrok.ar",-51.91602778,-70.40744444,249,6.620833296,35,88.83148148,7.9021425,55.7273483
"rams.us","0","0",1,"rams.us",501,"rams.us",30.514411,-90.169853,1616,19.34166685,98,NA,21.578783,513.0458374
"rook.uk","0","0",2,"rook.uk",502,"rook.uk",51.406,-0.644,685,10.12916666,39,180.2163177,30.7986641,976.9347534
"saana.fi","0","0",4,"saana.fi",503,"saana.fi",69.0368,20.8433,521,-2.599999969,115,144.0631862,15.2737112,160.613739
"sage.us","0","0",1,"sage.us",504,"sage.us",39.43,-120.24,831,5.829166705,45,123.6714286,8.1665077,222.7404327
"sala.ir","0","0",1,"sala.ir",505,"sala.ir",34.51798,50.39897333,214,16.08333327,55,94.26333333,15.4418325,480.7709045
"saline.us","0","0",1,"saline.us",506,"saline.us",39.05,-99.1,608,12.10416666,122,243.9708333,9.6106682,780.62323
"sandhill.us","0","0",4,"sandhill.us",507,"sandhill.us",34.95738,-79.51774,1203,16.19166677,60,287.0052778,10.3425493,740.7620239
"sava.us","0","0",1,"sava.us",508,"sava.us",33.343894,-81.650936,1184,17.42916672,71,85.39,12.0101442,740.7620239
"sedg.us","0","0",1,"sedg.us",509,"sedg.us",34.7,-120.0166667,478,15.57500005,34,340.1313635,9.4708729,354.2384033
"sereng.tz","0","0",1,"sereng.tz",510,"sereng.tz",-2.429387,34.857435,827,21.94166656,75,298.7666667,13.4469385,265.1708069
"sevi.us","0","0",1,"sevi.us",511,"sevi.us",34.3592,-106.6905,252,13.06250015,81,138.8004132,10.014863,399.7457886
"sgs.us","0","0",1,"sgs.us",512,"sgs.us",40.81667,-104.76667,369,8.945833281,80,105.4724667,10.1270828,469.1299133
"shps.us","0","0",1,"shps.us",513,"shps.us",44.257212,-112.205337,246,5.320833323,125,127.7541667,10.5303869,339.6396484
"sier.us","0","0",1,"sier.us",514,"sier.us",39.23550963,-121.2836963,936,16.30833341,124,305.2272055,17.0412464,222.7404327
"smith.us","0","0",1,"smith.us",515,"smith.us",48.20658068,-122.624754,605,10.1833334,57,372.2603183,25.4834785,224.0832367
"spar.ca","0","0",1,"spar.ca",516,"spar.ca",49.01192,-119.60113,376,6.975,34,186.775,4.2634878,247.0965118
"spin.us","0","0",1,"spin.us",517,"spin.us",38.132222,-84.502778,1152,12.48333327,57,473.8843137,26.0706158,977.4589844
"spv.ar","0","0",1,"spv.ar",518,"spv.ar",-42.653747,-64.171606,216,13.15833343,22,71.62755,10.1908512,68.1189499
"stew.ca","0","0",1,"stew.ca",519,"stew.ca",63.4576,-136.94624,335,-3.670833309,19,162.705,9.5053911,49.5848732
"summ.za","0","0",1,"summ.za",520,"summ.za",-29.81161,30.71573,944,18.43750012,105,365.915625,31.9334984,453.3308411
"sval.no","0","0",1,"sval.no",521,"sval.no",78.69018,16.44712,302,-7.574999941,18,315.3477778,8.0125027,75.6227646
"tale.ir","0","0",1,"tale.ir",522,"tale.ir",36.13738041,50.71711769,261,8.854166721,147,153.4661279,12.3989487,480.7709045
"tatc.ca","0","0",1,"tatc.ca",523,"tatc.ca",62.3005,-136.18262,273,-2.458333294,17,267.565,8.0123043,59.1627655
"tejon_foot.us","0","0",1,"tejon_foot.us",524,"tejon_foot.us",35.0247536,-118.6777248,840,13.04583333,51,288.325,4.9004221,354.2384033
"tejon_north.us","0","0",1,"tejon_north.us",525,"tejon_north.us",34.97777778,-118.5947222,812,13.27499998,39,213.47,15.4773312,354.2384033
"tejon_south.us","0","0",1,"tejon_south.us",526,"tejon_south.us",34.97111111,-118.5819444,809,13.29999992,34,227.2916667,8.5395412,354.2384033
"temple.us","0","0",1,"temple.us",527,"temple.us",31.044,-97.349,877,19.39583355,97,845.448913,25.4188919,634.6031494
"thth.is","0","0",2,"thth.is",528,"thth.is",65.90129,-17.08927,572,1.216666658,58,296.4654333,0.7198454,110.3292236
"tmlr.is","0","0",1,"tmlr.is",529,"tmlr.is",65.90129,-17.08927,572,1.216666658,35,23.48931111,0.7198454,110.3292236
"trel.us","0","0",2,"trel.us",530,"trel.us",40.075,-88.829,992,11.07083331,25,1102.597172,16.4824734,954.3803101
"twostep.us","0","0",1,"twostep.us",531,"twostep.us",47.599999,-119.620507,242,8.44999994,14,95.2,16.1872787,216.0787811
"tyso.us","0","0",1,"tyso.us",532,"tyso.us",38.519092,-90.564792,980,12.67500002,60,478.9396875,21.6665173,954.3803101
"ucsc.us","0","0",4,"ucsc.us",533,"ucsc.us",36.984861,-122.05025,542,14.07083331,17,2138.6,36.1334839,354.2384033
"ukul.za","0","0",1,"ukul.za",535,"ukul.za",-29.670238,30.401051,832,17.65416663,205,534.2929722,21.8324795,453.3308411
"unc.us","0","0",1,"unc.us",536,"unc.us",36.00828,-79.020423,1157,14.86250004,67,330.5714667,26.1286907,740.7620239
"uwo.ca","0","0",1,"uwo.ca",537,"uwo.ca",43.193131,-81.317807,1035,7.362499919,33,259.7653333,21.9051456,827.0494385
"valm.ch","0","0",1,"valm.ch",538,"valm.ch",46.631345,10.372252,681,0.133333397,115,211.8205128,14.8282871,1479.478516
"vargrass.no","0","0",1,"vargrass.no",539,"vargrass.no",70.32797,29.5398,607,-2.049999977,86,399.0071709,0.6064544,195.3769531
"varheath.no","0","0",2,"varheath.no",540,"varheath.no",70.32797,29.5398,607,-2.049999977,47,497.5674347,0.6064544,195.3769531
"vass.se","0","0",1,"vass.se",541,"vass.se",68.416979,18.274396,778,-1.425000037,39,163.565,9.2434435,160.613739
"veluwe.nl","0","0",1,"veluwe.nl",542,"veluwe.nl",52.026547,5.807947,851,9.487499991,73,141.3243333,21.3220406,1476.593506
"wupatki.us","0","0",1,"wupatki.us",543,"wupatki.us",35.583811,-111.512906,342,21.26249993,14,107.69,12.2307711,274.468689
"yarra.au","0","0",1,"yarra.au",NA,NA,NA,NA,NA,NA,NA,NA,NA,NA
