site,Site.Number,Location,precip,ANPP,Num_ex,Num_plots,grazing.pressure,grazer,Grazer_Domestic,herbivore.type,herbivore.spp,Grassland.type,plot.size.shape,PlotSize,Final.Lat,Final.Long,biogeographic.realm,guild,domestic,dom,sprich,CVpercBA,bio1,bio2,bio3,bio4,bio5,bio6,bio7,bio8,bio9,bio10,bio11,bio12,bio13,bio14,bio15,bio16,bio17,bio18,bio19,N.deposition1993,CECSOL_M_sl2_10km_ll,ORCDRC_M_sl2_10km_ll,SNDPPT_M_sl2_10km_ll,herb_map_2,optional
Argentina_ElPalmar,102,South America,1338,720,3,1,2,cattle,domestic,grazer,1,grassland,15m long,NA,-31.87,-58.29,neotropics,0,1,36.72735932,90,1.01052213,183,125,48,4666,325,65,260,214,125,245,125,1190,141,63,23,367,209,325,209,664.1900024,26,33,45,41.456073,TRUE
Argentina_Glencoe,100,South America,1495,650,2,1,2,cattle,domestic,grazer,1,grassland,15m long,NA,-32.01,-57.17,neotropics,0,1,33.09863339,94,1.355402009,181,120,46,4669,320,64,256,238,123,243,123,1239,134,75,18,363,241,322,241,664.1900024,26,30,42,41.094262,TRUE
Argentina_ML,35,South America,365,NA,5,1,2,sheep,domestic,grazer_browser,1,grass shrub steppe,,NA,-45.6,-71.44,neotropics,1,1,54.30467422,35,0,63,94,46,4088,172,-30,202,12,113,113,7,512,73,22,43,209,74,74,190,35.47999954,28,65,54,16.68506,TRUE
Argentina_Quebrada,103,South America,1341,585,2,1,2,cattle,domestic,grazer,1,grassland,15m long,NA,-32.91,-54.45,neotropics,0,1,24.18651258,92,1.83426602,166,122,49,4244,302,57,245,113,209,222,113,1274,121,84,10,342,276,288,342,1465.51001,20,34,53,20.104687,TRUE
Argentina_Relincho,104,South America,1155,655,6,1,2,cattle & sheep,domestic,grazer_browser,2,grassland,15m long,NA,-34.34,-56.98,neotropics,1,1,41.60403727,91,1.439211434,169,105,44,4531,301,65,236,173,120,228,112,1188,123,80,12,332,260,290,262,771.3099976,25,35,37,19.892863,TRUE
Argentina_RMcI84,36,South America,199,NA,5,1,2,sheep,domestic,grazer_browser,1,grass shrub steppe,,NA,-45.38,-70.25,neotropics,1,1,27.99640881,31,0,92,111,47,4709,220,-16,236,35,151,151,30,191,25,7,37,72,27,27,64,35.47999954,26,36,68,19.457193,TRUE
Argentina_S1,13,South America,472,NA,3,1,2,sheep,domestic,grazer_browser,1,shrub grass steppe,,NA,-41.11,-70.91,neotropics,1,1,27.4686441,25,2.801134938,70,123,50,4538,212,-31,243,20,128,128,12,570,108,14,69,297,51,51,273,116.7300034,25,55,62,16.812587,TRUE
Argentina_S10,22,South America,530,NA,3,1,2,sheep,domestic,grazer_browser,1,shrub grass steppe,,NA,-41.08,-71.03,neotropics,1,1,43.99064613,15,4.468051588,79,120,50,4461,219,-21,240,30,136,136,22,685,127,18,68,355,62,62,325,116.7300034,26,51,60,16.812587,TRUE
Argentina_S11,23,South America,530,NA,3,1,2,sheep,domestic,grazer_browser,1,shrub grass steppe,,NA,-41.08,-71.02,neotropics,1,1,45.92010058,18,4.468051588,79,120,50,4461,219,-21,240,30,136,136,22,685,127,18,68,355,62,62,325,116.7300034,26,51,60,16.812587,TRUE
Argentina_S12,24,South America,297,NA,3,1,2,sheep,domestic,grazer_browser,1,shrub grass steppe,,NA,-41.11,-70.63,neotropics,1,1,62.68754179,9,2.801134938,77,127,50,4717,223,-27,250,25,127,138,17,463,94,12,72,249,41,42,220,116.7300034,22,33,63,16.812587,TRUE
Argentina_S13,25,South America,297,NA,3,1,2,sheep,domestic,grazer_browser,1,shrub grass steppe,,NA,-41.11,-70.62,neotropics,1,1,53.12748901,11,2.801134938,74,128,50,4740,221,-30,251,21,124,135,14,441,89,11,72,235,40,40,209,116.7300034,22,33,63,16.812587,TRUE
Argentina_S14,26,South America,297,NA,3,1,2,sheep,domestic,grazer_browser,1,shrub grass steppe,,NA,-41.12,-70.6,neotropics,1,1,64.51714655,11,2.801134938,74,128,50,4740,221,-30,251,21,124,135,14,441,89,11,72,235,40,40,209,116.7300034,21,26,64,16.812587,TRUE
Argentina_S15,27,South America,297,NA,3,1,2,sheep,domestic,grazer_browser,1,shrub grass steppe,,NA,-41.12,-70.59,neotropics,1,1,36.14219901,17,2.801134938,74,128,50,4740,221,-30,251,21,124,135,14,441,89,11,72,235,40,40,209,116.7300034,21,26,64,16.812587,TRUE
Argentina_S16,28,South America,297,NA,3,1,2,sheep,domestic,grazer_browser,1,shrub grass steppe,,NA,-41.13,-70.58,neotropics,1,1,61.33819533,14,2.801134938,75,128,50,4753,222,-30,252,22,125,136,14,423,85,11,71,226,38,39,199,116.7300034,20,36,64,16.812587,TRUE
Argentina_S17,29,South America,297,NA,3,1,2,sheep,domestic,grazer_browser,1,shrub grass steppe,,NA,-41.14,-70.58,neotropics,1,1,61.57123263,16,2.801134938,75,128,50,4753,222,-30,252,22,125,136,14,423,85,11,71,226,38,39,199,116.7300034,20,36,64,16.812587,TRUE
Argentina_S18,30,South America,199,NA,3,1,2,sheep,domestic,grazer_browser,1,shrub grass steppe,,NA,-45.41,-70.3,neotropics,1,1,35.24984237,18,0,90,110,47,4671,217,-17,234,34,149,149,28,198,26,8,37,76,28,28,68,35.47999954,26,36,68,19.457193,TRUE
Argentina_S19,31,South America,199,NA,3,1,2,sheep,domestic,grazer_browser,1,shrub grass steppe,,NA,-45.39,-70.25,neotropics,1,1,25.414208,19,0,92,111,47,4709,220,-16,236,35,151,151,30,191,25,7,37,72,27,27,64,35.47999954,26,36,68,19.457193,TRUE
Argentina_S2,14,South America,472,NA,3,1,2,sheep,domestic,grazer_browser,1,shrub grass steppe,,NA,-41.13,-70.89,neotropics,1,1,48.50821876,20,2.801134938,74,123,50,4553,216,-27,243,24,122,133,16,576,110,15,70,303,52,52,275,116.7300034,24,50,62,16.812587,TRUE
Argentina_S20,32,South America,199,NA,3,1,2,sheep,domestic,grazer_browser,1,shrub grass steppe,,NA,-45.38,-70.25,neotropics,1,1,32.24239556,15,0,92,111,47,4709,220,-16,236,35,151,151,30,191,25,7,37,72,27,27,64,35.47999954,26,36,68,19.457193,TRUE
Argentina_S21,33,South America,365,NA,3,1,2,sheep,domestic,grazer_browser,1,grass shrub steppe,,NA,-45.61,-71.42,neotropics,1,1,61.37410719,25,0,63,94,46,4088,172,-30,202,12,113,113,7,512,73,22,43,209,74,74,190,35.47999954,28,65,54,16.68506,TRUE
Argentina_S22,34,South America,365,NA,3,1,2,sheep,domestic,grazer_browser,1,grass shrub steppe,,NA,-45.58,-71.4,neotropics,1,1,39.60289571,21,0,67,95,46,4097,176,-27,203,16,117,117,11,506,73,22,43,207,72,72,187,35.47999954,27,60,57,16.68506,TRUE
Argentina_S3,15,South America,472,NA,3,1,2,sheep,domestic,grazer_browser,1,shrub grass steppe,,NA,-41.13,-70.9,neotropics,1,1,73.22551809,18,2.801134938,74,123,50,4553,216,-27,243,24,122,133,16,576,110,15,70,303,52,52,275,116.7300034,24,50,62,16.812587,TRUE
Argentina_S4,16,South America,530,NA,3,1,2,sheep,domestic,grazer_browser,1,shrub grass steppe,,NA,-41.11,-71.08,neotropics,1,1,68.98031308,18,4.468051588,77,120,50,4418,216,-23,239,29,134,134,21,700,125,19,67,357,64,64,331,116.7300034,26,51,60,16.812587,TRUE
Argentina_S5,17,South America,530,NA,3,1,2,sheep,domestic,grazer_browser,1,shrub grass steppe,,NA,-41.11,-71.08,neotropics,1,1,62.48050197,22,4.468051588,77,120,50,4418,216,-23,239,29,134,134,21,700,125,19,67,357,64,64,331,116.7300034,26,51,60,16.812587,TRUE
Argentina_S6,18,South America,530,NA,3,1,2,sheep,domestic,grazer_browser,1,shrub grass steppe,,NA,-41.11,-71.09,neotropics,1,1,77.13336684,17,4.468051588,79,119,50,4402,218,-20,238,31,136,136,23,736,130,19,67,375,67,67,348,116.7300034,26,51,60,16.812587,TRUE
Argentina_S7,19,South America,530,NA,3,1,2,sheep,domestic,grazer_browser,1,shrub grass steppe,,NA,-41.11,-71.07,neotropics,1,1,42.53642426,20,4.468051588,77,120,50,4418,216,-23,239,29,134,134,21,700,125,19,67,357,64,64,331,116.7300034,26,51,60,16.812587,TRUE
Argentina_S8,20,South America,530,NA,3,1,2,sheep,domestic,grazer_browser,1,shrub grass steppe,,NA,-41.1,-71.04,neotropics,1,1,48.07286027,13,4.468051588,80,120,50,4455,220,-20,240,32,137,137,23,685,127,18,69,356,61,61,324,116.7300034,26,51,60,16.812587,TRUE
Argentina_S9,21,South America,530,NA,3,1,2,sheep,domestic,grazer_browser,1,shrub grass steppe,,NA,-41.1,-71.05,neotropics,1,1,40.01772265,17,4.468051588,77,120,50,4418,216,-23,239,29,134,134,21,700,125,19,67,357,64,64,331,116.7300034,26,51,60,16.812587,TRUE
Argentina_Sierra,105,South America,800,500,6 (but in different yrs),5,3,horses,domestic,grazer,1,grassland,5 m2,5,-38.05,-61.98,neotropics,0,1,27.10120597,61,1.774444408,126,130,46,5206,287,8,279,190,61,194,61,751,102,27,35,248,99,231,99,328.0100098,22,33,55,22.201511,TRUE
Argentina_SUL,101,South America,1341,707,1,1,2,cattle & sheep,domestic,grazer_browser,2,grassland,15m long,NA,-33.88,-55.56,neotropics,1,1,25.64102564,59,4.322697772,167,115,47,4405,302,59,243,171,212,225,112,1283,120,92,7,342,294,300,323,771.3099976,21,30,46,19.77257,TRUE
AUS_Ag_Biod,225,Australia,246,NA,6,2,2,cattle & sheep (kangaroos everywhere),domestic,grazer_browser,2,woodland,400m2,400,-34.09,142.5,australasia,1,1,29.60223287,58,2.146639953,170,138,47,5223,326,38,288,139,207,237,103,313,32,21,13,92,66,70,82,385.1199951,14,19,68,20.325467,TRUE
AUS_Arumpo,236,Australia,245,NA,1,1,3,"sheep, kangaroos, rabbits",both,grazer_browser,3,semi-arid woodland,400m2,400,-33.94,143.04,australasia,1,1,36.6568915,30,3.602560411,173,140,47,5347,330,38,292,141,212,241,104,311,32,21,12,88,70,71,78,385.1199951,13,17,65,20.325467,TRUE
AUS_Berry,224,Australia,605,NA,5,1,2,sheep,domestic,grazer_browser,1,woodland,125m2,125,-32.88,148.07,australasia,1,1,16.68150751,79,2.734652999,174,130,45,5665,326,39,287,241,100,246,100,566,68,32,19,170,119,169,119,272.0700073,18,13,58,21.438699,TRUE
AUS_Birregurra,119,Australia,730,712,3,1,1,sheep,domestic,grazer_browser,1,Plains grassland,2.5m2,2.5,-38.27,146.69,australasia,1,1,80.5982906,23,2.080463121,127,108,50,3546,241,28,213,121,172,172,80,837,80,45,15,238,169,169,213,514.9299927,23,46,69,13.868771,TRUE
AUS_Buronga,226,Australia,260,NA,2,1,2,"kangaroos, rabbits",non-domestic,grazer_browser,2,Floodplain grassland,~23m2,23,-34.16,142.2,australasia,1,0,25.14612225,35,2.81830754,171,137,47,5137,327,41,286,140,208,237,106,293,31,20,14,88,60,65,77,385.1199951,12,11,70,20.150915,TRUE
AUS_Craigieburn,109,Australia,665,349.6,1,1,2,sheep,domestic,grazer_browser,1,Grassland,5m2,5,-37.58,144.93,australasia,1,1,18.45493562,29,3.314174273,138,106,47,4049,263,42,221,110,189,189,86,695,71,45,15,204,139,139,176,214.7200012,26,29,60,13.506839,TRUE
AUS_CYP,223,Australia,432,72.5,1,1,2,cattle (kangaroos everywhere),domestic,grazer,1,woodland,125m2,125,-34.97,146.48,australasia,0,1,33.60347895,54,1.022029136,163,132,45,5675,323,32,291,125,234,237,91,491,51,33,15,142,105,108,128,454.1400146,15,18,61,21.588267,TRUE
AUS_Darlington,120,Australia,620,500,3,1,1,sheep,domestic,grazer_browser,1,Plains grassland,2.5m2,2.5,-37.88,143.02,australasia,1,1,54.88215488,29,1.643277906,132,111,50,3752,261,40,221,106,182,182,85,604,69,34,21,188,103,103,176,214.7200012,29,35,59,15.857066,TRUE
AUS_FowlersGap,231,Australia,223,NA,3,1,2,"sheep, kangaroos",both,grazer_browser,2,semi-arid steppe,4m2,4,-31.07,141.72,australasia,1,1,34.68114381,53,0,188,134,44,5882,340,42,298,256,110,261,110,225,28,13,21,70,46,70,46,120.5,9,5,68,13.623067,TRUE
AUS_Grampians,110,Australia,629,43.6,1,1,3,kangaroos,non-domestic,grazer_browser,1,Grassy woodland,5m2,5,-37.05,142.37,australasia,1,0,20.75471698,35,1.894003339,136,124,50,4225,280,33,247,83,190,190,83,627,78,29,33,217,92,92,217,385.1199951,25,34,67,14.636864,TRUE
AUS_Hamilton,121,Australia,686,242,3,1,1,sheep,domestic,grazer_browser,1,Plains grassland,2.5m2,2.5,-37.84,142.08,australasia,1,1,46.76912153,22,1.672435116,130,106,51,3381,250,43,207,92,174,174,87,731,95,27,33,258,102,102,253,214.7200012,28,49,59,9.38544,TRUE
AUS_Hattah,111,Australia,293,171.2,1,1,2,"kangaroos, rabbits",non-domestic,grazer_browser,2,Pine-buloke woodland,5m2,5,-34.7,142.3,australasia,1,0,39.21568627,26,3.157317815,167,139,48,5048,323,39,284,135,232,232,102,329,34,22,16,100,68,68,90,385.1199951,17,14,64,20.450661,TRUE
AUS_Inverleigh,112,Australia,523,305.8,1,1,3,"kangaroos, rabbits",non-domestic,grazer_browser,2,Grassy woodland,5m2,5,-38.08,144.05,australasia,1,0,93.75,18,1.896590073,138,100,49,3571,251,48,203,112,185,185,93,570,61,35,18,177,105,105,153,214.7200012,24,39,64,16.30645,TRUE
AUS_Kimberley,229,Australia,245,NA,1,1,2,"cattle, sheep, kangaroo, goats, rabbits",both,grazer_browser,3,sand plains,22.5m2,22.5,-32.5,145.61,australasia,1,1,16.08031862,78,2.992222002,177,133,45,5789,331,38,293,179,115,250,102,390,43,24,19,111,85,93,90,272.0700073,14,16,66,16.446946,TRUE
AUS_Kinypanial,113,Australia,409,207.7,1,1,2,sheep,domestic,grazer_browser,1,Grassland,5m2,5,-36.32,143.8,australasia,1,1,18.55670103,34,2.14904055,153,127,47,4923,304,36,268,120,217,217,91,445,50,25,21,138,82,82,130,385.1199951,18,11,60,20.523677,TRUE
AUS_Liawenee_cattle,234,Australia,1050,NA,1,1,1,"sheep, kangaroos, rabbits, wombats",both,grazer_browser,4,alpine grassland,2.5m2,2.5,-42,146.67,australasia,1,1,2.590673575,81,2.133214819,61,89,47,3266,170,-16,186,23,102,102,18,911,99,46,20,284,163,176,271,184.8899994,30,148,56,18.471999,TRUE
AUS_Liawenee_natives,233,Australia,1050,NA,1,1,1,"sheep, kangaroos, rabbits, wombats",both,grazer_browser,4,alpine grassland,2.5m2,2.5,-42,146.67,australasia,1,1,2.590673575,78,2.133214819,61,89,47,3266,170,-16,186,23,102,102,18,911,99,46,20,284,163,176,271,184.8899994,30,148,56,18.471999,TRUE
AUS_Mallee,235,Australia,240,72.5,1,1,1,"goats, kangaroos, rabbits",both,grazer_browser,3,semi-arid woodland,400m2,400,-34.17,142.46,australasia,1,1,71.25890736,15,2.81830754,170,138,48,5200,326,39,287,138,207,236,103,313,32,21,13,92,65,70,82,385.1199951,12,15,69,20.150915,TRUE
AUS_Murray,114,Australia,272,172.3,1,1,2,"kangaroos, rabbits, goats",both,grazer_browser,3,Savannah woodland,5m2,5,-34.27,141.82,australasia,1,1,87.75137112,12,3.406282287,170,138,48,5059,327,42,285,139,206,235,105,298,31,19,17,91,58,62,82,385.1199951,10,13,71,20.150915,TRUE
AUS_OBriens,115,Australia,381,406.6,1,1,2,sheep,domestic,grazer_browser,1,Grassy woodland,5m2,5,-36.22,144.42,australasia,1,1,26.37362637,26,2.216103736,154,127,47,4978,305,35,270,121,218,218,91,429,46,26,18,129,86,86,121,385.1199951,18,11,59,20.523677,TRUE
AUS_Paradise,238,Australia,400,NA,1,1,1,"cattle, sheep, kangaroos",both,grazer_browser,3,shrubland,400m2,400,-34.79,144.78,australasia,1,1,37.68844221,24,2.674825296,169,134,47,5395,324,39,285,135,223,238,100,384,41,25,15,109,82,84,96,385.1199951,12,9,53,43.256449,TRUE
AUS_Pinegrove,116,Australia,381,161.9,1,1,2,sheep,domestic,grazer,1,Grassy woodland,5m2,5,-36.22,144.42,australasia,0,1,19.51219512,22,2.216103736,154,127,47,4978,305,35,270,121,218,218,91,429,46,26,18,129,86,86,121,385.1199951,18,11,59,20.523677,TRUE
AUS_Savernake,230,Australia,475,NA,7,1,3,"kangaroos, rabbits, sheep",both,grazer_browser,3,woodland,5m2,5,-35.79,145.95,australasia,1,1,37.33834417,67,1.429315629,158,131,46,5419,316,33,283,99,226,228,90,495,50,31,16,144,102,105,136,454.1400146,16,12,56,21.277043,TRUE
AUS_Wapweelah,232,Australia,312,NA,3,1,3,cattle & goats,domestic,grazer_browser,2,semi-arid woodland,2.5m2,2.5,-29.26,145.46,australasia,1,1,27.98663325,31,3.160000291,203,143,46,5939,355,48,307,270,139,277,124,347,45,15,34,131,59,112,61,64.51000214,22,9,59,14.837911,TRUE
AUS_Warrambeen,117,Australia,587,943.9,1,1,3,sheep,domestic,grazer,1,Grassland,5m2,5,-37.92,143.87,australasia,0,1,91.15281501,30,1.447465743,133,104,49,3699,253,42,211,107,182,182,86,618,67,37,19,193,112,112,170,214.7200012,25,35,60,16.30645,TRUE
AUS_Werrai,237,Australia,375,54.4,1,1,3,"kangaroos, rabbits",non-domestic,grazer_browser,2,Floodplain grassland,400m2,400,-35.35,144.58,australasia,1,0,37.31343284,21,1.914814307,164,132,46,5257,318,37,281,130,231,231,96,401,40,22,16,119,83,83,109,385.1199951,16,14,61,43.256449,TRUE
AUS_WilsonsPromontory,118,Australia,960,940.8,1,1,3,"kangaroos, wombats",non-domestic,grazer_browser,2,Grassland,5m2,5,-38.88,146.23,australasia,1,0,75.94936709,23,3.306290827,136,79,47,2997,227,61,166,98,176,176,98,999,114,40,28,328,157,157,328,514.9299927,22,53,64,11.344823,TRUE
AUS_Yathong_large,227,Australia,340,NA,3,1,3,"kangaroos, rabbits, goats",both,grazer_browser,3,woodland,800m2,800,-32.56,145.57,australasia,1,1,51.40624453,34,2.992222002,177,134,45,5779,332,38,294,179,115,250,102,380,43,23,20,110,82,90,87,272.0700073,15,16,68,16.446946,TRUE
AUS_Yathong_small,228,Australia,340,NA,22,1,3,"kangaroos, rabbits, goats",both,grazer_browser,3,woodland,2 m2,2,-32.52,145.59,australasia,1,1,36.71095866,77,2.992222002,177,133,45,5789,331,38,293,179,115,250,102,390,43,24,19,111,85,93,90,272.0700073,16,16,66,16.446946,TRUE
Buckhorn,165,North America,272,NA,1,1,2,cattle,domestic,grazer,1,Wy. Big Sage,25m2,25,38.85,-109.16,nearctic,0,1,32.5443787,29,2.262661495,109,155,36,9246,332,-93,425,177,-12,228,-12,277,31,14,19,85,57,68,57,280.7200012,18,7,56,19.283442,TRUE
California_RanchoMarino,222,North America,733,422,5,1,2,cattle and horses,domestic,grazer,2,costal grassland,4m2,4,35.54,-121.09,nearctic,0,1,50.08844197,42,1.425060014,NA,NA,NA,NA,NA,NA,NA,NA,NA,NA,NA,NA,NA,NA,NA,NA,NA,NA,NA,335.8399963,28,19,41,18.447896,TRUE
California_Sedgwick,218,North America,565,287,10,3,2,cattle,domestic,grazer,1,oak savanna,2-4m2,3,34.68,-120.03,nearctic,0,1,43.78333264,37,2.279597757,150,134,54,3916,282,37,245,108,199,203,104,505,104,0,93,295,2,9,274,335.8399963,26,30,41,18.500248,TRUE
California_Sedgwick_Airstrip,219,North America,401,271,4,1,2,cattle,domestic,grazer,1,oak savanna,5m2,5,34.69,-120.04,nearctic,0,1,65.3595262,30,2.279597757,150,134,54,3916,282,37,245,108,199,203,104,505,104,0,93,295,2,9,274,335.8399963,26,30,41,18.500248,TRUE
California_Sedgwick_Lisque,220,North America,401,271,7,1,2,cattle,domestic,grazer,1,oak savanna,5m2,5,34.69,-120.04,nearctic,0,1,54.51156038,56,2.279597757,150,134,54,3916,282,37,245,108,199,203,104,505,104,0,93,295,2,9,274,335.8399963,26,30,41,18.500248,TRUE
California_Sedgwick_Mesa,221,North America,401,271,4,1,2,cattle,domestic,grazer,1,oak savanna,5m2,5,34.69,-120.04,nearctic,0,1,61.50089566,54,2.279597757,150,134,54,3916,282,37,245,108,199,203,104,505,104,0,93,295,2,9,274,335.8399963,26,30,41,18.500248,TRUE
Canada_Currie,41,North America,304,155.4,1,1,2,cattle,domestic,grazer,1,,2.5m2,2.5,50.73,-120.52,nearctic,0,1,76.1451517,12,2.122510523,83,111,30,8571,278,-87,365,191,37,191,-30,294,33,12,28,93,45,93,82,159.4900055,23,51,42,8.634648,TRUE
Canada_Dewdrop.1,42,North America,353,83.6,1,1,2,cattle,domestic,grazer,1,,2.5m2,2.5,50.76,-120.65,nearctic,0,1,51.65723525,9,2.122510523,61,110,31,8206,249,-101,350,166,17,166,-46,333,36,15,26,103,53,103,91,159.4900055,27,53,42,8.634648,TRUE
Canada_Dewdrop.2,43,North America,320,163.6,1,1,2,cattle,domestic,grazer,1,,2.5m2,2.5,50.75,-120.63,nearctic,0,1,70.00642261,13,2.122510523,85,111,30,8607,280,-85,365,-19,40,194,-28,294,34,12,27,91,46,89,85,159.4900055,27,53,42,8.634648,TRUE
Canada_Drum,44,North America,434,99,1,1,2,cattle,domestic,grazer,1,,2.5m2,2.5,50.09,-120.67,nearctic,0,1,48.20328542,13,0,53,111,32,7986,240,-100,340,-43,10,155,-51,357,43,19,24,120,65,92,110,159.4900055,25,45,44,6.797861,TRUE
Canada_fht1,45,North America,448,247.4,1,1,2,cattle,domestic,grazer,1,,2.5m2,2.5,50.74,-120.44,nearctic,0,1,67.11711712,18,4.226242417,75,112,30,8492,270,-92,362,183,29,183,-36,309,35,13,28,99,48,99,84,159.4900055,24,43,42,14.430552,TRUE
Canada_FLHT.2,46,North America,441,187.9,1,1,2,cattle,domestic,grazer,1,,2.5m2,2.5,50.74,-120.36,nearctic,0,1,57.78597786,14,4.226242417,84,113,30,8613,282,-86,368,193,38,193,-30,307,35,13,27,98,48,98,84,159.4900055,26,31,39,14.430552,TRUE
Canada_Frolek,47,North America,388,293.5,1,1,2,cattle,domestic,grazer,1,,2.5m2,2.5,50.82,-120.44,nearctic,0,1,56.02711465,18,4.226242417,51,111,31,8084,239,-110,349,154,7,154,-54,361,39,17,24,113,59,113,95,159.4900055,25,89,45,14.430552,TRUE
Canada_Goose.Lake,48,North America,329,283.8,1,1,2,cattle,domestic,grazer,1,,2.5m2,2.5,50.1,-120.43,nearctic,0,1,71.42857143,24,0,41,112,33,7869,227,-112,339,-54,-4,141,-62,332,36,17,23,100,57,98,91,159.4900055,27,32,41,21.983599,TRUE
Canada_gooselake2,49,North America,334,251.5,1,1,2,cattle,domestic,grazer,1,,2.5m2,2.5,50.11,-120.42,nearctic,0,1,23.03846154,18,0,41,112,33,7869,227,-112,339,-54,-4,141,-62,332,36,17,23,100,57,98,91,159.4900055,27,32,41,21.983599,TRUE
Canada_hav,50,North America,327,202.2,1,1,2,cattle,domestic,grazer,1,,2.5m2,2.5,50.09,-120.45,nearctic,0,1,33.39828527,20,0,41,112,33,7869,227,-112,339,-54,-4,141,-62,332,36,17,23,100,57,98,91,159.4900055,27,32,41,21.983599,TRUE
Canada_hbb,51,North America,327,247.7,1,1,2,cattle,domestic,grazer,1,,2.5m2,2.5,50.08,-120.45,nearctic,0,1,54.81404241,14,0,39,112,33,7854,225,-114,339,-56,-5,139,-63,334,36,17,22,100,59,98,92,159.4900055,27,32,41,21.983599,TRUE
Canada_hkb,52,North America,328,275.8,1,1,2,cattle,domestic,grazer,1,,2.5m2,2.5,50.08,-120.47,nearctic,0,1,90.23709902,11,0,44,113,33,7940,232,-110,342,-51,0,145,-60,335,37,17,23,103,58,96,94,159.4900055,27,32,41,21.983599,TRUE
Canada_hsr,53,North America,375,210.9,1,1,2,cattle,domestic,grazer,1,,2.5m2,2.5,50.07,-120.45,nearctic,0,1,52.18650449,20,0,39,112,33,7854,225,-114,339,-56,-5,139,-63,334,36,17,22,100,59,98,92,159.4900055,25,47,44,21.983599,TRUE
Canada_LG1.LDB,54,North America,376,114.6,1,1,2,cattle,domestic,grazer,1,,2.5m2,2.5,50.73,-120.44,nearctic,0,1,78.6724032,9,4.226242417,75,112,30,8492,270,-92,362,183,29,183,-36,309,35,13,28,99,48,99,84,159.4900055,24,43,42,14.430552,TRUE
Canada_LG3.LDB,56,North America,384,153.4,1,1,2,cattle,domestic,grazer,1,,2.5m2,2.5,50.73,-120.44,nearctic,0,1,57.58880517,13,4.226242417,75,112,30,8492,270,-92,362,183,29,183,-36,309,35,13,28,99,48,99,84,159.4900055,24,43,42,14.430552,TRUE
Canada_LG4.LDB,57,North America,364,147.3,1,1,2,cattle,domestic,grazer,1,,2.5m2,2.5,50.74,-120.43,nearctic,0,1,58.45488925,17,4.226242417,75,112,30,8492,270,-92,362,183,29,183,-36,309,35,13,28,99,48,99,84,159.4900055,24,43,42,14.430552,TRUE
Canada_LG5.LDB,58,North America,362,218.8,1,1,2,cattle,domestic,grazer,1,,2.5m2,2.5,50.74,-120.43,nearctic,0,1,90.69935112,12,4.226242417,75,112,30,8492,270,-92,362,183,29,183,-36,309,35,13,28,99,48,99,84,159.4900055,24,43,42,14.430552,TRUE
Canada_LGS.1,59,North America,391,87.8,1,1,2,cattle,domestic,grazer,1,,2.5m2,2.5,50.73,-120.43,nearctic,0,1,68.21752266,16,4.226242417,75,112,30,8492,270,-92,362,183,29,183,-36,309,35,13,28,99,48,99,84,159.4900055,24,43,42,14.430552,TRUE
Canada_LGS.2,60,North America,412,162.6,1,1,2,cattle,domestic,grazer,1,,2.5m2,2.5,50.74,-120.43,nearctic,0,1,43.84662956,10,4.226242417,75,112,30,8492,270,-92,362,183,29,183,-36,309,35,13,28,99,48,99,84,159.4900055,24,43,42,14.430552,TRUE
Canada_LGS.3,61,North America,469,176.1,1,1,2,cattle,domestic,grazer,1,,2.5m2,2.5,50.74,-120.43,nearctic,0,1,44.43247126,20,4.226242417,75,112,30,8492,270,-92,362,183,29,183,-36,309,35,13,28,99,48,99,84,159.4900055,24,43,42,14.430552,TRUE
Canada_LGS.4,62,North America,365,126.8,1,1,2,cattle,domestic,grazer,1,,2.5m2,2.5,50.73,-120.44,nearctic,0,1,72.40019714,12,4.226242417,75,112,30,8492,270,-92,362,183,29,183,-36,309,35,13,28,99,48,99,84,159.4900055,24,43,42,14.430552,TRUE
Canada_LGS.5,63,North America,383,173,1,1,2,cattle,domestic,grazer,1,,2.5m2,2.5,50.73,-120.44,nearctic,0,1,71.58999193,12,4.226242417,75,112,30,8492,270,-92,362,183,29,183,-36,309,35,13,28,99,48,99,84,159.4900055,24,43,42,14.430552,TRUE
Canada_LGS.6,64,North America,304,186.7,1,1,2,cattle,domestic,grazer,1,,2.5m2,2.5,50.74,-120.44,nearctic,0,1,73.42908438,16,4.226242417,75,112,30,8492,270,-92,362,183,29,183,-36,309,35,13,28,99,48,99,84,159.4900055,24,43,42,14.430552,TRUE
Canada_llrs,65,North America,353,312.3,1,1,2,cattle,domestic,grazer,1,,2.5m2,2.5,50.78,-120.41,nearctic,0,1,51.94902549,16,4.226242417,61,112,31,8270,253,-104,357,166,16,166,-47,341,37,16,25,107,55,107,90,159.4900055,25,89,45,14.430552,TRUE
Canada_lls1,66,North America,320,198,1,1,2,cattle,domestic,grazer,1,,2.5m2,2.5,50.8,-120.41,nearctic,0,1,47.36842105,16,4.226242417,56,111,31,8222,247,-108,355,161,11,161,-51,355,39,17,24,111,58,111,93,159.4900055,25,89,45,14.430552,TRUE
Canada_llw,67,North America,434,205.5,1,1,2,cattle,domestic,grazer,1,,2.5m2,2.5,50.79,-120.41,nearctic,0,1,25.40447504,13,4.226242417,61,112,31,8270,253,-104,357,166,16,166,-47,341,37,16,25,107,55,107,90,159.4900055,25,89,45,14.430552,TRUE
Canada_Long.lake.4,68,North America,448,198.4,1,1,2,cattle,domestic,grazer,1,,2.5m2,2.5,50.79,-120.4,nearctic,0,1,32.62195122,15,4.226242417,61,112,31,8270,253,-104,357,166,16,166,-47,341,37,16,25,107,55,107,90,159.4900055,26,79,43,14.430552,TRUE
Canada_Long.lake.5,69,North America,441,208.4,1,1,2,cattle,domestic,grazer,1,,2.5m2,2.5,50.79,-120.4,nearctic,0,1,53.82342076,17,4.226242417,61,112,31,8270,253,-104,357,166,16,166,-47,341,37,16,25,107,55,107,90,159.4900055,26,79,43,14.430552,TRUE
Canada_Long.lake.6,70,North America,388,230.3,1,1,2,cattle,domestic,grazer,1,,2.5m2,2.5,50.79,-120.4,nearctic,0,1,48.43102427,22,4.226242417,61,112,31,8270,253,-104,357,166,16,166,-47,341,37,16,25,107,55,107,90,159.4900055,26,79,43,14.430552,TRUE
Canada_Lundbom.Lake,71,North America,329,191,1,1,2,cattle,domestic,grazer,1,,2.5m2,2.5,50.09,-120.63,nearctic,0,1,64.61486714,9,0,40,109,32,7751,222,-110,332,-54,-4,138,-61,362,41,19,22,115,65,99,105,159.4900055,25,45,44,6.797861,TRUE
Canada_Mara.1,72,North America,334,157.9,1,1,2,cattle,domestic,grazer,1,,2.5m2,2.5,50.74,-120.5,nearctic,0,1,57.2172619,16,4.226242417,74,111,30,8449,267,-93,360,181,28,181,-37,309,34,13,27,98,48,98,85,159.4900055,24,43,42,14.430552,TRUE
Canada_MG1.LDB,73,North America,327,231.4,1,1,2,cattle,domestic,grazer,1,,2.5m2,2.5,50.76,-120.44,nearctic,0,1,55.14864283,16,4.226242417,59,111,31,8225,249,-105,354,163,14,163,-49,343,37,16,25,107,55,107,91,159.4900055,24,43,42,14.430552,TRUE
Canada_MG2.LDB,74,North America,327,215.2,1,1,2,cattle,domestic,grazer,1,,2.5m2,2.5,50.76,-120.44,nearctic,0,1,53.86666667,20,4.226242417,59,111,31,8225,249,-105,354,163,14,163,-49,343,37,16,25,107,55,107,91,159.4900055,24,43,42,14.430552,TRUE
Canada_MG3.LDB,75,North America,328,249.6,1,1,2,cattle,domestic,grazer,1,,2.5m2,2.5,50.74,-120.44,nearctic,0,1,73.45591702,21,4.226242417,75,112,30,8492,270,-92,362,183,29,183,-36,309,35,13,28,99,48,99,84,159.4900055,24,43,42,14.430552,TRUE
Canada_MGBR.1,76,North America,375,288.2,1,1,2,cattle,domestic,grazer,1,,2.5m2,2.5,50.76,-120.44,nearctic,0,1,58.47871598,20,4.226242417,59,111,31,8225,249,-105,354,163,14,163,-49,343,37,16,25,107,55,107,91,159.4900055,24,43,42,14.430552,TRUE
Canada_MGBR.2,77,North America,376,271.4,1,1,2,cattle,domestic,grazer,1,,2.5m2,2.5,50.77,-120.43,nearctic,0,1,30.39327988,21,4.226242417,59,111,31,8225,249,-105,354,163,14,163,-49,343,37,16,25,107,55,107,91,159.4900055,24,43,42,14.430552,TRUE
Canada_Powerline,78,North America,373,219.1,1,1,2,cattle,domestic,grazer,1,,2.5m2,2.5,50.13,-120.44,nearctic,0,1,79.64071856,15,0,48,113,32,8004,237,-107,344,-48,4,150,-57,325,36,16,23,98,55,96,90,159.4900055,27,32,41,21.983599,TRUE
Canada_Redhil,79,North America,384,314.1,1,1,2,cattle,domestic,grazer,1,,2.5m2,2.5,50.75,-120.42,nearctic,0,1,46.11928105,16,4.226242417,75,112,30,8492,270,-92,362,183,29,183,-36,309,35,13,28,99,48,99,84,159.4900055,24,43,42,14.430552,TRUE
Canada_Repeter,80,North America,364,318.7,1,1,2,cattle,domestic,grazer,1,,2.5m2,2.5,50.07,-120.43,nearctic,0,1,39.15885195,12,0,39,112,33,7854,225,-114,339,-56,-5,139,-63,334,36,17,22,100,59,98,92,159.4900055,25,47,44,21.983599,TRUE
Canada_Summit.North,81,North America,362,340.4,1,1,2,cattle,domestic,grazer,1,,2.5m2,2.5,50.06,-120.43,nearctic,0,1,45.03348214,17,0,39,112,33,7854,225,-114,339,-56,-5,139,-63,334,36,17,22,100,59,98,92,159.4900055,25,47,44,21.983599,TRUE
Canada_Summit.South,82,North America,391,417.6,1,1,2,cattle,domestic,grazer,1,,2.5m2,2.5,50.06,-120.43,nearctic,0,1,61.12531969,14,0,39,112,33,7854,225,-114,339,-56,-5,139,-63,334,36,17,22,100,59,98,92,159.4900055,25,47,44,21.983599,TRUE
Canada_TMV,83,North America,412,220.6,1,1,2,cattle,domestic,grazer,1,,2.5m2,2.5,50.8,-120.39,nearctic,0,1,32.36531987,17,4.226242417,56,111,31,8222,247,-108,355,161,11,161,-51,355,39,17,24,111,58,111,93,159.4900055,26,79,43,14.430552,TRUE
CanaryIsland_Anaga,108,Europe,480,256,4,1,1,goats,domestic,browser,1,Mediterannean Grassland,100m2,100,28.54,-16.19,palearctic,1,1,25.7279964,114,0,194,69,46,2658,279,130,149,173,223,230,163,346,69,1,84,188,6,8,138,74.62999725,29,48,43,-1,TRUE
CanaryIsland_Teno,106,Europe,450,NA,8,1,1,goats,domestic,browser,1,Mediterannean Grassland,100m2,100,28.25,-16.75,palearctic,1,1,24.80455151,136,2.559732125,127,74,40,3729,234,49,185,93,175,180,84,499,102,1,85,280,8,16,240,74.62999725,35,50,44,8.381891,TRUE
CanaryIsland_Valle,107,Europe,313,174,5,1,3,goats,domestic,browser,1,Mediterannean Grassland,100m2,100,28.08,-17.33,palearctic,1,1,40.73530851,92,3.82450382,186,68,45,2752,272,121,151,164,217,225,155,339,72,0,86,192,3,9,131,74.62999725,31,41,44,8.381891,TRUE
CedarCreek,5,North America,825,222,6,1,1,deer & pocket gopher,non-domestic,grazer_browser,2,tallgrass prairie,5 m2,5,45.08,-93.17,nearctic,1,0,22.90263895,84,0,71,112,25,11488,285,-161,446,210,-87,210,-87,751,111,21,50,313,69,313,69,698.2000122,22,29,65,14.797107,TRUE
China_LC,122,Asia,334,150,1,1,3,sheep,domestic,grazer_browser,1,Stipa grandis grassland,10m2,10,43.55,116.67,palearctic,1,1,27.63698741,30,1.904192425,12,133,26,13376,251,-250,501,175,-171,175,-171,342,100,2,109,234,8,234,8,486.5700073,24,28,49,20.57357,TRUE
China_SG,123,Asia,334,150,1,1,3,sheep,domestic,grazer_browser,1,Leymus chinensis grassland,10m2,10,43.54,116.56,palearctic,1,1,34.25266345,28,1.904192425,13,134,26,13462,253,-252,505,176,-172,176,-172,337,97,2,106,229,8,229,8,486.5700073,22,27,49,20.57357,TRUE
China_Yunwu,204,Asia,425,336,3,10,3,sheep,domestic,grazer_browser,1,Steppe grassland,10m2,10,36.27,106.43,palearctic,1,1,35.6108016,71,4.582575695,68,115,30,9155,251,-129,380,168,-57,182,-57,447,104,2,89,264,9,245,9,1070.849976,12,14,32,15.419565,TRUE
Cisco Mesa,166,North America,223,NA,1,1,2,cattle,domestic,grazer,1,S. desert shrub,25m2,25,39.05,-109.37,nearctic,0,1,32.78350515,21,2.738469736,111,161,36,9675,343,-101,444,181,-17,234,-17,239,27,13,20,74,48,59,48,280.7200012,21,8,39,19.283442,TRUE
Cisco Wash 1,167,North America,215,NA,1,1,2,cattle,domestic,grazer,1,S. desert shrub,25m2,25,39.01,-109.42,nearctic,0,1,41.360601,16,2.738469736,114,162,36,9722,347,-99,446,184,-15,238,-15,232,27,12,21,73,46,56,46,280.7200012,20,10,43,19.283442,TRUE
Cisco Wash 2,168,North America,215,NA,1,1,2,cattle,domestic,grazer,1,S. desert shrub,25m2,25,39.01,-109.41,nearctic,0,1,58.49688846,24,2.738469736,115,163,36,9720,349,-99,448,185,-14,239,-14,231,27,12,21,72,46,56,46,280.7200012,20,10,43,19.283442,TRUE
CPER,4,North America,340,70,17,1,2,cattle & pronghorn,both,grazer_browser,2,short grass steppe,,NA,40.83,-104.72,nearctic,1,1,46.25975706,78,1.185784317,84,160,39,8537,301,-106,407,171,-22,197,-22,365,63,8,59,170,26,145,26,543.4000244,21,12,52,20.55971,TRUE
DesertHigh,6,North America,635,203,3,1,1,elk and sheep,both,grazer_browser,2,Montane Grassland,10 m2,10,41.42,-111.42,nearctic,1,1,30.82880873,33,2.802802915,24,149,38,8096,239,-145,384,-62,130,130,-75,533,53,29,17,153,99,99,149,184.6499939,29,52,37,22.320084,TRUE
DesertLow,7,North America,305,125,2,1,2,"cattle, elk, deer, and pronghorn",both,grazer_browser,4,Bunchgrass Steppe,10 m2,10,41.36,-111.42,nearctic,1,1,52.49915269,18,2.802802915,20,144,38,7976,232,-143,375,-63,126,126,-76,590,61,32,19,175,106,106,171,184.6499939,30,55,38,22.320084,TRUE
DesertSage,8,North America,305,47,3,1,2,"cattle, elk, deer, and pronghorn",both,grazer_browser,4,Sagebrush Steppe,10 m2,10,41.18,-111.08,nearctic,1,1,32.77979373,27,2.802802915,39,162,40,8374,264,-141,405,28,-66,148,-66,352,37,24,13,102,76,80,76,187.4199982,24,26,37,22.320084,TRUE
Dry Valley,169,North America,293,NA,1,1,2,cattle,domestic,grazer,1,S. desert shrub/Grama Galleta,25m2,25,38.15,-109.4,nearctic,0,1,59.51670644,18,2.201312538,95,155,37,8900,317,-98,415,162,138,211,-19,320,37,12,25,104,56,80,75,280.7200012,18,9,54,18.890836,TRUE
Ethiopia,2,Africa,500,NA,6,10,3,cattle,domestic,grazer,1,Montane Grassland,10m2,10,4.78,38.37,afrotropic,0,1,29.88571133,31,2.139044223,193,128,76,1119,290,122,168,197,179,209,179,541,154,4,91,291,27,109,27,711.5999756,23,17,54,16.365841,TRUE
FortKeogh,137,North America,339,124,4,1,1,cattle,domestic,grazer,1,mixed grass prairie,5m2,5,46.39,-105.87,nearctic,0,1,49.06624701,48,3.276048474,77,146,31,10817,319,-148,467,188,-65,216,-65,322,64,9,63,154,31,126,31,245.2200012,26,15,32,19.504712,TRUE
France_Heath,38,Europe,940,320,3,1,2,cattle & sheep,domestic,grazer_browser,2,Acidic Heath subalpine grassland,8m2,8,45.08,6.05,palearctic,1,1,30.61587888,80,0,57,91,33,6136,202,-66,268,22,133,135,-23,1169,110,74,10,322,259,268,301,1862.900024,30,114,48,10.256767,TRUE
France_Mesic,39,Europe,1380,220,3,1,2,sheep,domestic,grazer_browser,1,Mesic calcareous subalpine grassland,12m2,12,44.87,5.47,palearctic,1,1,25.70443746,75,0,46,79,32,5824,181,-65,246,15,119,121,-28,1203,113,76,10,329,266,274,310,1107.780029,26,84,40,7.803153,TRUE
France_Xeric,40,Europe,1380,130,3,1,2,sheep,domestic,grazer_browser,1,Xeric calcareous subalpine grassland,8m2,8,44.87,5.47,palearctic,1,1,16.07338402,64,0,46,79,32,5824,181,-65,246,15,119,121,-28,1203,113,76,10,329,266,274,310,1107.780029,26,84,40,7.803153,TRUE
Germany1,136,Europe,629,NA,1,1,1,sheep,domestic,grazer_browser,1,sandy grassland,790m2?,790,49.88,8.66,palearctic,1,1,19.56414066,105,0,97,90,33,6570,245,-25,270,180,24,180,11,644,72,40,18,204,128,204,139,3531.889893,18,29,48,4.472016,TRUE
Germany2,135,Europe,629,NA,14,1,1,sheep & donkeys,domestic,grazer_browser,2,sandy grassland,25m2?,25,49.88,8.66,palearctic,1,1,72.22186865,55,0,97,90,33,6570,245,-25,270,180,24,180,11,644,72,40,18,204,128,204,139,3531.889893,18,29,48,4.472016,TRUE
Harts Draw,170,North America,372,NA,1,1,2,cattle and wildlife,both,grazer_browser,2,Wy. Big Sage/ P-J Woodland Transition,25m2,25,38.02,-109.49,nearctic,1,1,54.78558111,18,2.201312538,87,149,36,8705,304,-100,404,153,127,200,-25,347,40,13,26,112,57,88,85,280.7200012,19,14,51,18.890836,TRUE
Harts Point,171,North America,338,NA,1,1,2,cattle and wildlife,both,grazer_browser,2,Mtn. Big Sage/ P-J Woodland Transition,25m2,25,37.96,-109.5,nearctic,1,1,49.59459459,15,3.373448896,86,149,37,8664,302,-100,402,151,126,199,-25,354,40,13,25,114,58,89,87,280.7200012,25,29,43,18.890836,TRUE
Horse Pature,172,North America,270,NA,1,1,2,cattle,domestic,grazer,1,Wy. Big Sage,25m2,25,39.07,-109.56,nearctic,0,1,53.98791541,23,3.545169207,104,154,35,9633,333,-103,436,174,-22,228,-22,251,28,13,21,79,51,62,51,280.7200012,20,12,47,22.406792,TRUE
Hotel Mesa,173,North America,237,NA,1,1,2,cattle,domestic,grazer,1,S. desert shrub,25m2,25,38.84,-109.24,nearctic,0,1,21.01855848,32,2.262661495,116,161,36,9414,344,-92,436,184,-7,237,-7,249,28,12,20,76,51,60,51,280.7200012,19,8,54,19.283442,TRUE
House Park,174,North America,327,NA,1,1,2,cattle,domestic,grazer,1,Wy. Big Sage,25m2,25,38,-109.86,nearctic,0,1,31.80288462,35,1.719461886,91,143,35,8761,305,-93,398,157,131,206,-20,317,38,12,26,103,52,83,77,280.7200012,17,11,60,19.033474,TRUE
India_Kibber,215,Asia,400,55,24,1,3,"Native and Livestock (goat sheep horse donkey yak, ibex, bharal, yak)",both,grazer_browser,8,alpine grassland,10 m long (50 points),NA,32.34,78.02,indo-malay,1,1,39.42954428,34,0,1,111,34,7380,158,-165,323,89,-38,93,-96,465,65,11,41,173,57,145,114,1423.099976,20,76,48,18.072109,TRUE
India_Nutnet,214,Asia,507,55,3,1,3,"yak, cattle, horse, sheep, goats, donkey",domestic,grazer_browser,6,alpine grassland,1m2,1,32.32,78.01,indo-malay,1,1,46.8999506,15,0,6,111,34,7302,161,-158,319,93,-33,98,-90,497,67,12,40,180,61,150,123,1423.099976,20,76,48,18.072109,TRUE
Jornada,1,North America,280,NA,2,30,3,cattle,domestic,grazer,1,Chihuahuan Desert Grassland,30 m line,NA,32.62,-106.74,nearctic,0,1,68.37436708,43,2.366017176,148,192,48,7767,345,-53,398,239,142,249,49,254,54,5,70,137,22,118,40,196.4700012,14,8,65,11.879982,TRUE
Junner Koeland,9,Europe,758,463,5,2,1,cattle,domestic,grazer,1,Floodplain grassland,4 m2,4,52.53,6.48,palearctic,0,1,48.32128591,42,0,90,77,34,5432,213,-11,224,159,48,159,21,775,79,45,16,222,149,222,185,1026.310059,16,74,80,0,TRUE
Kate Hollow,175,North America,310,NA,1,1,2,"cattle, horse, pronghorn, mule deer, elk, rabbit, bighorn sheep",both,grazer_browser,7,Wy. Big Sage,25m2,25,41.33,-111.17,nearctic,1,1,24.69582956,23,2.802802915,39,166,40,8480,267,-147,414,78,-70,148,-70,348,38,23,16,104,73,79,73,184.6499939,23,18,41,22.320084,TRUE
Kenya_Central,196,Africa,578,1204,3,1,2,african mammals,non-domestic,grazer_browser,13,savanna grassland,12.25,12.25,0.4,36.91,afrotropic,1,0,55.59435612,32,1.440988022,185,166,83,565,286,87,199,192,183,192,178,721,144,24,60,295,92,295,125,525.6099854,22,17,51,17.481433,TRUE
Kenya_North,194,Africa,493,512,3,1,2,african mammals,non-domestic,grazer_browser,13,savanna grassland,12.25,12.25,0.48,36.87,afrotropic,1,0,38.17274719,33,1.440988022,186,168,84,574,288,88,200,194,185,194,179,695,143,22,63,295,86,295,114,525.6099854,26,17,44,17.481433,TRUE
Kenya_South,195,Africa,625,722,3,1,2,african mammals,non-domestic,grazer_browser,13,savanna grassland,12.25,12.25,0.28,36.89,afrotropic,1,0,76.618844,35,1.440988022,178,163,81,538,279,80,199,185,176,185,172,714,133,22,55,273,88,273,145,525.6099854,28,22,38,17.481433,TRUE
KLEE_cattle,124,Africa,613,NA,3,1,2,cattle,domestic,grazer,1,savanna,,NA,0.3,36.81,afrotropic,0,1,37.59058389,29,1.440988022,176,163,81,557,276,77,199,183,174,183,170,653,120,18,54,242,78,242,152,525.6099854,28,22,38,17.481433,TRUE
KLEE_wildlife,125,Africa,613,NA,3,1,2,african mammals,non-domestic,grazer_browser,10,savanna,,NA,0.3,36.81,afrotropic,1,0,37.59058389,36,1.440988022,176,163,81,557,276,77,199,183,174,183,170,653,120,18,54,242,78,242,152,525.6099854,28,22,38,17.481433,TRUE
Konza,188,North America,835,525,21,1,2,bison,non-domestic,grazer,1,Tallgrass prairie,4m2,4,39.09,-96.58,nearctic,0,0,52.23712432,95,0.691037211,120,128,30,9941,324,-91,415,221,-13,245,-13,869,137,20,51,355,71,326,71,943,30,22,18,22.070824,TRUE
KonzaPrairie,10,North America,835,302,3,1,2,bison,non-domestic,grazer,1,Tallgrass prairie,10 m2,10,39.09,-96.58,nearctic,0,0,28.02366831,56,0.691037211,120,128,30,9941,324,-91,415,221,-13,245,-13,869,137,20,51,355,71,326,71,943,30,22,18,22.070824,TRUE
KRNP_Lammertjiesleegte,92,Africa,282,NA,4,1,2,african mammals,non-domestic,grazer_browser,10,Karoo dwarf shrubland,,NA,-32.33,22.55,afrotropic,1,0,35.68755001,64,1.023103514,178,151,54,4437,322,44,278,229,119,234,119,224,39,8,46,89,29,72,29,267.7600098,13,13,63,17.586663,TRUE
KRNP_Sandrivier,93,Africa,196,NA,4,1,2,african mammals,non-domestic,grazer_browser,10,Karoo dwarf shrubland,,NA,-32.3,22.3,afrotropic,1,0,26.5267074,54,2.507009221,176,156,53,4631,324,34,290,230,115,234,115,193,35,8,45,77,25,61,25,267.7600098,12,10,66,17.716049,TRUE
Kruger_Buff,193,Africa,547,487,7,1,2,African buffalo,non-domestic,grazer,1,savanna grassland,4m2,4,-24.4,31.78,afrotropic,0,0,64.61555613,46,0.797894475,223,141,55,3657,332,79,253,265,171,265,171,568,104,8,75,296,30,296,30,494.6900024,22,13,48,19.427545,TRUE
Kruger_Letaba,217,Africa,400,118.4,1,1,2,african mammals,non-domestic,grazer_browser,13,savanna,24m2,24,-23.76,31.43,afrotropic,1,0,52.99539171,75,1.275094029,228,139,55,3625,334,85,249,269,176,269,176,486,89,4,78,253,19,253,19,494.6900024,16,9,68,17.406146,TRUE
Kruger_Marheya,191,Africa,557,560,7,1,2,african mammals,non-domestic,grazer_browser,10,savanna grassland,4m2,4,-24.54,31.78,afrotropic,1,0,76.80598203,32,0.600815218,220,137,55,3569,326,80,246,261,169,261,169,593,108,9,74,306,31,306,31,494.6900024,15,11,60,18.247468,TRUE
Kruger_Nkuhlu,216,Africa,560,371.7,1,1,2,african mammals,non-domestic,grazer_browser,13,savanna,60m2,60,-24.98,31.77,afrotropic,1,0,13.15592204,179,0.600815218,219,131,55,3566,317,81,236,258,167,258,167,623,113,9,72,314,32,314,32,494.6900024,13,12,60,18.247468,TRUE
Kruger_Nwan,192,Africa,463,500,7,1,2,african mammals,non-domestic,grazer_browser,10,savanna grassland,4m2,4,-24.45,31.89,afrotropic,1,0,42.11787119,36,0.797894475,225,141,56,3631,332,81,251,266,173,266,173,578,104,9,73,297,33,297,33,494.6900024,24,13,47,19.427545,TRUE
Kruger_Satara,190,Africa,559,609,7,1,2,african mammals,non-domestic,grazer_browser,10,savanna grassland,4m2,4,-24.4,31.74,afrotropic,1,0,78.3135227,24,0.797894475,222,140,55,3632,330,79,251,264,170,264,170,568,104,8,76,297,28,297,28,494.6900024,22,13,48,19.427545,TRUE
Lapland_Jehkas,98,Europe,489,185,3,1,3,reindeer,non-domestic,grazer_browser,1,low arctic meadow,2.5m2,2.5,69.08,20.78,palearctic,1,0,76.13032628,32,0,-21,74,23,8299,147,-169,316,91,-36,91,-123,478,71,22,33,169,73,169,117,141.3500061,27,121,54,-1,TRUE
Lapland_Saana,99,Europe,489,185,3,1,3,reindeer,non-domestic,grazer_browser,1,low arctic meadow,2.5m2,2.5,69.05,20.83,palearctic,1,0,76.18774816,33,0,-32,74,23,8384,138,-181,319,82,-95,82,-134,515,77,25,32,183,82,183,123,141.3500061,27,105,52,-1,TRUE
LasChilcas,37,South America,953,530,2 (but in different yrs),1,2,cattle,domestic,grazer,1,flood prone mesophytic grassland,20 m long,NA,-36.5,-58.5,neotropics,0,1,21.7927495,54,2.459712098,148,127,48,4737,299,36,263,206,89,210,89,907,97,52,21,279,159,270,159,771.3099976,26,33,38,16.85891,TRUE
Lost Park,176,North America,409,NA,1,1,2,"cattle, horse, pronghorn, mule deer, elk, rabbit, bighorn sheep",both,grazer_browser,7,Wy. Big Sage/ P-J Woodland Transition,25m2,25,41.36,-111.13,nearctic,1,1,80.02108593,15,2.802802915,40,170,40,8653,272,-150,422,82,-71,151,-71,312,35,19,18,96,61,74,61,184.6499939,23,18,41,22.320084,TRUE
MAERC,246,North America,1364,1104.9,4,1,1,"deer, hogs, cattle",both,grazer_browser,3,wet prairie,,NA,27.13,-81.2,nearctic,1,1,63.62775122,25,0.492894586,225,127,53,4071,334,95,239,272,180,272,169,1203,200,42,57,557,139,511,151,680.3200073,12,45,79,11.309371,TRUE
Mali_Korokodjo,87,Africa,427,242.9,4,1,3,cattle,domestic,grazer,1,Savanna grassland,,NA,15.32,-9.51,afrotropic,0,1,15.7600061,48,1.025473542,285,150,53,3479,412,129,283,289,255,330,237,496,180,0,141,410,0,62,1,32.31000137,10,5,69,15.223016,TRUE
Mali_Lakamane,88,Africa,577,228.4,4,1,3,cattle,domestic,grazer,1,Savanna grassland,,NA,14.59,-9.94,afrotropic,0,1,12.58133347,54,0.471408732,279,144,56,2664,398,144,254,272,262,316,245,710,232,0,131,551,0,117,1,329.8200073,16,6,49,15.223016,TRUE
Mali_Neguela,89,Africa,868,420.7,4,1,2,cattle,domestic,grazer,1,savanna woodland,,NA,12.88,-8.48,afrotropic,0,1,18.52675688,56,0.296684354,271,151,59,2494,390,135,255,261,244,305,241,991,313,0,128,755,0,45,7,329.8200073,8,9,43,17.380743,TRUE
Mali_Tiendaga,91,Africa,1132,573.2,4,1,1,cattle,domestic,grazer,1,savanna woodland,,NA,11.01,-6.81,afrotropic,0,1,14.12130958,72,0.457992346,271,133,60,1914,372,153,219,258,255,299,250,1057,285,1,105,687,6,139,14,456.3200073,6,10,59,14.711172,TRUE
Mali_Tiorola,90,Africa,1043,718.2,4,1,3,cattle,domestic,grazer,1,savanna woodland,,NA,11.61,-7.1,afrotropic,0,1,15.91477925,61,0.389518312,272,135,60,2084,374,152,222,259,253,302,249,1017,280,0,111,686,2,117,10,329.8200073,8,12,52,15.117777,TRUE
Mananga_High,208,Africa,NA,311.4,5,1,3,african mammals,non-domestic,grazer_browser,9,savanna,4m4,4,-24.39,31.73,afrotropic,1,0,41.52059441,44,0.797894475,222,140,55,3632,330,79,251,264,170,264,170,568,104,8,76,297,28,297,28,494.6900024,22,13,48,19.427545,TRUE
Mananga_Low,206,Africa,NA,92.9,5,1,3,african mammals,non-domestic,grazer_browser,9,savanna,4m2,4,-24.38,31.87,afrotropic,1,0,45.5586735,31,0.797894475,225,142,55,3670,334,80,254,267,173,267,173,565,103,8,74,293,30,293,30,494.6900024,26,14,44,19.427545,TRUE
Mexico_LaColorada,130,North America,450,114,1,1,3,cattle,domestic,grazer,1,semi-arid shrubland,60 m long,NA,22.03,-102.25,nearctic,0,1,37.85966683,34,2.435524498,177,174,63,3104,309,33,276,209,167,212,134,463,113,3,94,279,17,202,40,543.1099854,20,12,35,19.91755,TRUE
Mexico_LaMesa,129,North America,450,100,1,1,2,cattle,domestic,grazer,1,semi-arid grassland,80 m long,NA,22.03,-102.25,nearctic,0,1,53.87579329,13,2.435524498,177,174,63,3104,309,33,276,209,167,212,134,463,113,3,94,279,17,202,40,543.1099854,20,12,35,19.91755,TRUE
Mexico_LaPresa,131,North America,450,132,1,1,3,cattle,domestic,grazer,1,semi-arid grassland,120 m long,NA,22.03,-102.25,nearctic,0,1,41.62350504,37,2.435524498,177,174,63,3104,309,33,276,209,167,212,134,463,113,3,94,279,17,202,40,543.1099854,20,12,35,19.91755,TRUE
Mexico_Vaquerias,128,North America,450,88,1,1,2,cattle,domestic,grazer,1,semi-arid grassland,120 m long,NA,22.03,-102.25,nearctic,0,1,27.23655122,31,2.435524498,177,174,63,3104,309,33,276,209,167,212,134,463,113,3,94,279,17,202,40,543.1099854,20,12,35,19.91755,TRUE
MNK_16mileTank,245,North America,184,NA,1,2,1,"cattle, burros, mule dear, pronghorn",both,grazer_browser,4,desert,,NA,35.31,-115.45,nearctic,1,1,52.38095238,7,3.633345437,172,133,37,7858,364,13,351,271,204,276,76,177,28,3,45,60,18,50,55,538.3300171,13,6,64,13.718374,TRUE
MNP_14mileTank,244,North America,164,NA,2,2,1,"cattle, burros, mule dear, pronghorn",both,grazer_browser,4,desert,,NA,35.36,-115.36,nearctic,1,1,45.34161491,13,3.633345437,181,134,37,7986,374,19,355,280,214,286,83,158,25,3,43,54,16,45,49,538.3300171,13,4,65,13.718374,TRUE
MNP_30,243,North America,203,NA,3,2,1,"cattle, burros, mule dear, pronghorn",both,grazer_browser,4,desert,,NA,35.17,-115.46,nearctic,1,1,42.01754386,21,3.633345437,164,127,37,7621,350,12,338,84,193,265,72,214,34,4,45,72,22,59,68,538.3300171,13,6,64,13.718374,TRUE
MNP_TenmileTank,242,North America,181,NA,2,1,1,"cattle, burros, mule dear, pronghorn",both,grazer_browser,4,desert,,NA,35.31,-115.4,nearctic,1,1,35.41666667,14,3.633345437,175,132,37,7894,367,15,352,92,207,279,78,174,27,3,43,58,18,48,55,538.3300171,13,4,65,13.718374,TRUE
Molesworth_CC,254,Australia,720,NA,3,1,1,cattle,domestic,grazer,1,tussock grassland,,NA,-42.19,172.88,australasia,0,1,26.25329815,28,0,61,85,44,3653,163,-27,190,36,107,107,13,1537,149,83,14,424,301,301,419,144.3999939,28,119,54,3.964405,TRUE
Molesworth_HG,255,Australia,750,NA,3,1,1,cattle,domestic,grazer,1,tussock grassland,,NA,-42.11,172.91,australasia,0,1,16.22176591,48,0,61,85,44,3651,163,-27,190,36,106,106,12,1615,157,86,15,446,315,315,439,144.3999939,30,147,55,3.964405,TRUE
Molesworth_PT,253,Australia,780,NA,3,1,1,cattle,domestic,grazer,1,tussock grassland,,NA,-42.31,173.04,australasia,0,1,46.15384615,21,0,77,85,45,3595,176,-12,188,29,121,121,29,1156,113,67,13,318,234,251,318,144.3999939,24,80,52,3.964405,TRUE
Molesworth_SD,256,Australia,750,NA,3,1,1,cattle,domestic,grazer,1,tussock grassland,,NA,-42.15,172.93,australasia,0,1,24.54545455,25,0,72,85,44,3620,172,-17,189,47,117,117,24,1290,127,72,13,351,258,258,341,144.3999939,25,98,53,3.964405,TRUE
Molesworth_ST,257,Australia,680,NA,6,1,1,cattle,domestic,grazer,1,tussock grassland,,NA,-42.19,172.78,australasia,0,1,19.84081865,66,0,57,85,44,3685,159,-31,190,31,102,103,8,1803,176,95,15,501,350,381,492,144.3999939,33,145,55,3.964405,TRUE
Molesworth_SW,252,Australia,680,NA,3,1,1,cattle,domestic,grazer,1,tussock grassland,,NA,-42.14,172.92,australasia,0,1,24.51433858,17,0,72,85,44,3620,172,-17,189,47,117,117,24,1290,127,72,13,351,258,258,341,144.3999939,25,98,53,3.964405,TRUE
Mongolia_BGgrassland,134,Asia,116,NA,4,1,3,sheep & goats,domestic,grazer_browser,2,desert steppe,10m2,10,43.9,103.5,palearctic,1,1,61.87847784,23,0,30,136,28,12304,258,-219,477,183,-134,183,-134,145,37,1,94,94,5,94,5,78.91999817,14,22,46,8.787877,TRUE
Mongolia_Mgairport,132,Asia,130,NA,2,1,3,sheep & goats,domestic,grazer_browser,2,steppe,10m2,10,45.75,106.27,palearctic,1,1,95.70341092,18,0,19,134,27,13094,257,-233,490,181,-136,181,-155,152,44,1,116,111,4,111,4,212.6000061,14,24,48,18.790147,TRUE
Mongolia_Mgshrubland,133,Asia,121,NA,3,1,3,sheep & goats,domestic,grazer_browser,2,steppe,10m2,10,45.78,106.18,palearctic,1,1,62.09229029,28,0,14,134,27,13023,251,-237,488,175,-140,175,-159,159,45,1,113,117,4,117,4,212.6000061,16,33,50,18.790147,TRUE
Mpala,3,Africa,514,NA,3,1,3,african mammals,non-domestic,grazer_browser,11,savanna,1440 pin hits,NA,0.29,36.9,afrotropic,1,0,35.17710222,45,1.440988022,178,163,81,538,279,80,199,185,176,185,172,714,133,22,55,273,88,273,145,525.6099854,27,20,42,17.481433,TRUE
N_Clan,247,North America,229,NA,2,1,2,"cattle, sheep, horses, bighorn sheep, pronghorn, mule deer",both,grazer_browser,6,cold desert shrubland,25m2,25,39.82,-117.68,nearctic,1,1,41.26866486,22,1.840451356,98,178,42,8060,335,-80,415,84,201,206,0,205,24,9,23,66,34,41,52,172.8200073,23,9,50,15.502124,TRUE
N_Pryor,248,North America,352,NA,4,1,2,"horses, bighorn sheep, mule deer",both,grazer_browser,3,shrubland,25m2,25,45.06,-108.26,nearctic,1,1,38.14127936,66,2.685945957,62,154,35,9188,292,-137,429,108,-56,183,-56,329,54,13,45,140,45,98,45,245.2200012,24,22,45,19.493863,TRUE
N_Spring,249,North America,413,NA,5,1,2,"horses,pronghorn, elk, mule deer",both,grazer_browser,4,sagebrush Steppe,25m2,25,37.96,-108.6,nearctic,1,1,43.73042544,46,2.805046532,77,164,39,8492,297,-121,418,142,116,187,-33,394,44,16,25,129,73,102,83,280.7200012,23,18,41,18.890836,TRUE
N_Sulphur,250,North America,332,NA,5,1,2,"horses, cattle, sheep, elk, pronghorn",both,grazer_browser,5,cold desert shrubland,25m2,25,38.61,-113.88,nearctic,1,1,38.2417221,20,4.582575695,82,174,41,8291,312,-105,417,188,-10,194,-19,295,32,17,20,87,58,76,58,187.4199982,19,9,52,16.351823,TRUE
N_Theodore,251,North America,389,NA,3,1,2,"horses, bison, elk, prong horn, mule deer, white-tailed deer",both,grazer_browser,6,mixed grass prairie,25m2,25,46.96,-103.35,nearctic,1,1,37.76994877,111,2.112818865,60,144,31,10907,296,-165,461,172,-85,198,-85,391,83,8,70,197,28,174,28,337.8200073,25,22,34,19.357042,TRUE
Neponset,177,North America,286,NA,1,1,2,"cattle, horse, pronghorn, mule deer, elk, rabbit, bighorn sheep",both,grazer_browser,7,Wy. Big Sage,25m2,25,37.97,-109.61,nearctic,1,1,14.24041407,26,1.719461886,95,150,36,8834,313,-93,406,161,136,210,-18,321,37,12,25,104,53,81,79,280.7200012,21,23,46,19.033474,TRUE
North Cottonwood,178,North America,332,NA,1,1,2,"cattle, horse, pronghorn, mule deer, elk, rabbit, bighorn sheep",both,grazer_browser,7,Wy. Big Sage,25m2,25,38.17,-109.72,nearctic,1,1,36.73082991,25,0,118,162,37,9354,348,-86,434,186,165,239,-3,237,29,9,25,78,45,58,52,280.7200012,16,8,64,19.033474,TRUE
NS_East Light BIO,197,North America,1511,NA,1,1,2,horses,domestic,grazer,1,Marram grassland,20m2,20,43.96,-59.83,nearctic,0,1,48.78472222,19,0,NA,NA,NA,NA,NA,NA,NA,NA,NA,NA,NA,NA,NA,NA,NA,NA,NA,NA,NA,393.1099854,NA,NA,NA,-1,TRUE
NS_Main Station Dry Heath,202,North America,1511,NA,1,1,2,horses,domestic,grazer,1,mature heath,20m2,20,43.93,-60.01,nearctic,0,1,27.36455464,26,0,73,61,24,6339,203,-47,250,27,110,159,-5,1418,147,96,14,428,298,319,383,551.8499756,NA,NA,NA,-1,TRUE
NS_Main Station Grassland,200,North America,1511,NA,1,1,2,horses,domestic,grazer,1,Marram grassland,10m2,10,43.93,-60.01,nearctic,0,1,36.59259259,19,0,73,61,24,6339,203,-47,250,27,110,159,-5,1418,147,96,14,428,298,319,383,551.8499756,NA,NA,NA,-1,TRUE
NS_Main Station Mesic Heath,201,North America,1511,NA,1,1,2,horses,domestic,grazer,1,Marram heath transition,20m2,20,43.93,-60.01,nearctic,0,1,25.59109875,26,0,73,61,24,6339,203,-47,250,27,110,159,-5,1418,147,96,14,428,298,319,383,551.8499756,NA,NA,NA,-1,TRUE
NS_West Light,203,North America,1511,NA,1,1,2,horses,domestic,grazer,1,Marram grassland,20m2,20,43.93,-60.02,nearctic,0,1,58.56,19,0,73,61,24,6339,203,-47,250,27,110,159,-5,1418,147,96,14,428,298,319,383,551.8499756,NA,NA,NA,-1,TRUE
NS_Wind Turbine (a),198,North America,1511,NA,1,1,2,horses,domestic,grazer,1,Marram heath transition,10m2,10,43.93,-60,nearctic,0,1,32.06214689,21,0,73,61,24,6327,203,-46,249,27,111,159,-5,1422,148,97,14,430,299,320,384,393.1099854,NA,NA,NA,-1,TRUE
NS_Wind Turbine (b),199,North America,1511,NA,1,1,2,horses,domestic,grazer,1,Marram heath transition,10m2,10,43.93,-60,nearctic,0,1,35.71428571,25,0,73,61,24,6327,203,-46,249,27,111,159,-5,1422,148,97,14,430,299,320,384,393.1099854,NA,NA,NA,-1,TRUE
Park Pasture,179,North America,213,NA,1,1,2,cattle,domestic,grazer,1,S. desert shrub,25m2,25,37.95,-109.71,nearctic,0,1,28.90918861,27,1.719461886,84,142,36,8621,297,-96,393,150,123,198,-25,350,41,13,25,112,57,90,87,280.7200012,22,27,47,19.033474,TRUE
Pniel,189,Africa,360,NA,3,1,2,cattle & african browsers,both,grazer_browser,7,Semi-arid savanna,5m2,5,-28.58,24.43,afrotropic,1,1,68.15686275,8,1.276993279,183,171,52,5375,336,11,325,239,131,246,109,430,81,6,70,209,24,201,26,187.5200043,10,6,75,8.275594,TRUE
Salt Creek Mesa,180,North America,320,NA,1,1,2,cattle,domestic,grazer,1,Wy. Big Sage,25m2,25,38.92,-109.2,nearctic,0,1,32.79398359,23,2.262661495,114,162,36,9473,343,-95,438,183,-10,236,-10,247,28,13,20,75,50,60,50,280.7200012,20,8,54,19.283442,TRUE
Sand Flat,181,North America,225,NA,1,1,2,cattle,domestic,grazer,1,S. desert shrub,25m2,25,37.96,-109.89,nearctic,0,1,51.36925795,28,1.719461886,95,145,36,8855,311,-91,402,161,136,211,-18,303,36,11,26,99,50,79,72,280.7200012,21,18,50,19.033474,TRUE
Satara North_High,212,Africa,NA,769.1,2,1,2,african mammals,non-domestic,grazer_browser,10,savanna,4m8,4,-24.39,31.85,afrotropic,1,0,73.26139534,21,0.797894475,225,142,55,3670,334,80,254,267,173,267,173,565,103,8,74,293,30,293,30,494.6900024,26,14,44,19.427545,TRUE
Satara North_Low,209,Africa,NA,504.1,2,1,2,african mammals,non-domestic,grazer_browser,10,savanna,4m5,4,-24.39,31.73,afrotropic,1,0,60.63094892,26,0.797894475,222,140,55,3632,330,79,251,264,170,264,170,568,104,8,76,297,28,297,28,494.6900024,22,13,48,19.427545,TRUE
Satara South_High,213,Africa,NA,790.3,2,1,2,african mammals,non-domestic,grazer_browser,10,savanna,4m9,4,-24.54,31.85,afrotropic,1,0,71.17441594,21,0.600815218,222,139,56,3588,329,81,248,263,171,263,171,589,107,9,73,303,32,303,32,494.6900024,22,12,50,18.247468,TRUE
Satara South_Low,211,Africa,NA,552.9,2,1,2,african mammals,non-domestic,grazer_browser,10,savanna,4m7,4,-24.4,31.73,afrotropic,1,0,49.77943818,26,0.797894475,222,140,55,3632,330,79,251,264,170,264,170,568,104,8,76,297,28,297,28,494.6900024,22,13,48,19.427545,TRUE
Schiermonnikoog,241,Europe,800,NA,4,1,1,cattle,domestic,grazer,1,salt marsh,,NA,53.48,6.22,palearctic,0,1,84.61718248,22,0,87,63,29,5348,201,-11,212,153,39,154,20,803,85,46,21,241,143,223,189,1026.310059,19,44,56,0,TRUE
Serengeti_Nutnet,205,Africa,789,166,3,1,2,african mammals,non-domestic,grazer_browser,9,savanna,1 m2,1,-2.25,34.51,afrotropic,1,0,34.88091469,23,0.322997697,221,113,79,720,291,148,143,226,209,226,209,855,143,12,55,356,72,298,72,736.9000244,26,15,44,40.923289,TRUE
SGS,11,North America,322,91,3,1,2,cattle,domestic,grazer,1,short grass steppe,3.5 m2,3.5,40.82,-104.77,nearctic,0,1,56.30237419,48,1.185784317,84,159,39,8491,299,-104,403,171,-21,197,-21,364,63,8,59,168,26,143,26,543.4000244,21,12,52,20.55971,TRUE
Shibotawna_High,210,Africa,NA,516.9,2,1,3,african mammals,non-domestic,grazer_browser,10,savanna,4m6,4,-24.4,31.74,afrotropic,1,0,35.30944955,31,0.797894475,222,140,55,3632,330,79,251,264,170,264,170,568,104,8,76,297,28,297,28,494.6900024,22,13,48,19.427545,TRUE
Shibotawna_Low,207,Africa,NA,135,2,1,3,african mammals,non-domestic,grazer_browser,10,savanna,4m3,4,-24.38,31.87,afrotropic,1,0,52.58523332,16,0.797894475,225,142,55,3670,334,80,254,267,173,267,173,565,103,8,74,293,30,293,30,494.6900024,26,14,44,19.427545,TRUE
Spain_ChapineriaHP,126,Europe,433,837,5,1,2,sheep & rabbits,domestic,grazer_browser,2,oak savanna,1.4m2,1.4,40.38,-4.2,palearctic,1,1,33.16770627,56,1.948721003,138,106,35,6611,310,11,299,95,226,226,57,396,46,11,33,130,51,51,107,971.039978,13,17,59,13.156536,TRUE
Spain_ChapineriaLP,127,Europe,433,230,5,1,2,sheep & rabbits,domestic,grazer_browser,2,oak savanna,1.4m2,1.4,40.38,-4.2,palearctic,1,1,32.26887058,42,1.948721003,138,106,35,6611,310,11,299,95,226,226,57,396,46,11,33,130,51,51,107,971.039978,13,17,59,13.156536,TRUE
Stanley Park,182,North America,322,NA,1,1,2,"cattle, horse, pronghorn, mule deer, elk, rabbit, bighorn sheep",both,grazer_browser,7,Wy. Big Sage,25m2,25,38.78,-109.08,nearctic,1,1,45.55590953,24,2.262661495,107,155,36,9131,328,-93,421,174,-12,225,-12,291,32,14,20,89,60,72,60,280.7200012,22,17,49,19.283442,TRUE
Steamboat Mesa,183,North America,345,NA,1,1,2,"cattle, horse, pronghorn, mule deer, elk, rabbit, bighorn sheep",both,grazer_browser,7,P-J Woodland/ Big Sage Transition,25m2,25,37.59,-109.76,nearctic,1,1,29.64652223,20,1.719461886,95,142,36,8713,308,-85,393,161,135,210,-15,323,38,11,27,104,49,83,83,280.7200012,22,21,46,19.033474,TRUE
SwissNP_Short,164,Europe,850,401,9,1,2,"red deer, chamois, & ibex",non-domestic,grazer_browser,3,tall grass,1m2,1,46.67,10.25,palearctic,1,0,21.7722871,113,0,-13,54,27,5206,91,-108,199,52,-75,53,-75,1346,156,81,22,449,262,427,264,1890.569946,30,128,53,7.528688,TRUE
SwissNP_Tall,163,Europe,850,500,9,1,2,"red deer, chamois, & ibex",non-domestic,grazer_browser,3,short grass,1m2,1,46.67,10.25,palearctic,1,0,25.47484629,117,0,-13,54,27,5206,91,-108,199,52,-75,53,-75,1346,156,81,22,449,262,427,264,1890.569946,30,128,53,7.528688,TRUE
Texas Flat,184,North America,338,NA,1,1,2,"cattle, horse, pronghorn, mule deer, elk, rabbit, bighorn sheep",both,grazer_browser,7,P-J Woodland/ Big Sage Transition,25m2,25,41.33,-111.24,nearctic,1,1,23.01719357,25,2.802802915,40,168,40,8507,269,-147,416,31,-69,150,-69,355,38,23,15,105,76,79,76,184.6499939,25,33,39,22.320084,TRUE
The Dip,185,North America,390,NA,1,1,2,"cattle, horse, pronghorn, mule deer, elk, rabbit, bighorn sheep",both,grazer_browser,7,Wy. Big Sage,25m2,25,37.65,-109.99,nearctic,1,1,18.18651817,25,1.719461886,94,138,35,8704,304,-85,389,201,134,209,-15,310,38,11,28,101,48,82,76,280.7200012,20,17,51,19.033474,TRUE
Tibet_Site1_Amdo_Bangai,138,Asia,484,NA,1?,1,2,sheep & yaks,domestic,grazer_browser,2,alpine meadow,0.75m2,0.75,32.27,91.92,palearctic,1,1,61.1550672,29,0,-26,150,40,7962,142,-232,374,72,-120,72,-130,378,100,2,112,258,6,258,6,98.72000122,16,60,56,15.419731,TRUE
Tibet_Site10_Gegyai_Xiongbar,147,Asia,120,NA,1?,1,2,sheep & goats,domestic,grazer_browser,2,alpine steppe,1.25m2,1.25,32.08,81.83,palearctic,1,1,68.44616312,8,0,-10,139,40,7538,163,-180,343,83,-62,89,-104,247,62,3,83,139,21,130,38,170.2700043,7,18,61,12.777651,TRUE
Tibet_Site11_Amdo_Guozur,148,Asia,494,NA,1?,1,2,sheep & yaks,domestic,grazer_browser,2,alpine meadow,1.25m2,1.25,31.72,91.81,palearctic,1,1,37.63787227,23,0,-22,151,40,7852,144,-229,373,75,-107,75,-125,383,100,2,113,261,7,261,7,98.72000122,18,52,55,15.419731,TRUE
Tibet_Site12_Amdo_Marluo,149,Asia,484,NA,1?,1,2,sheep & yaks,domestic,grazer_browser,2,alpine meadow,1.25m2,1.25,32.3,91.91,palearctic,1,1,38.4524159,33,0,-32,150,40,7968,136,-237,373,67,-126,67,-136,369,98,2,113,253,6,253,6,98.72000122,17,53,56,15.419731,TRUE
Tibet_Site13_Nagqu_Nagqu,150,Asia,508,NA,1?,1,2,sheep & yaks,domestic,grazer_browser,2,alpine meadow,1.25m2,1.25,31.68,92.03,palearctic,1,1,40.15074314,21,0,-18,153,40,7856,147,-228,375,79,-103,79,-121,403,103,2,110,272,7,272,7,98.72000122,19,50,54,15.419731,TRUE
Tibet_Site14_Nagqu_Namarqie,151,Asia,475,NA,1?,1,2,sheep & yaks,domestic,grazer_browser,2,alpine steppe-meadow,1.25m2,1.25,31.59,91.49,palearctic,1,1,57.80994147,11,0,-13,149,40,7765,151,-216,367,82,-98,82,-115,367,98,1,115,256,5,256,5,98.72000122,16,39,55,15.416813,TRUE
Tibet_Site15_Bangoin_Beilar,152,Asia,450,NA,1?,1,2,sheep & yaks,domestic,grazer_browser,2,alpine steppe,1.25m2,1.25,31.42,91.02,palearctic,1,1,21.42929988,27,0,-9,144,40,7619,153,-204,357,85,-92,85,-108,344,93,1,117,242,5,242,5,98.72000122,13,36,58,15.417904,TRUE
Tibet_Site16_Bangoin_Pubao2,153,Asia,400,NA,1?,1,2,sheep & goats,domestic,grazer_browser,2,alpine steppe,1.25m2,1.25,31.41,90.25,palearctic,1,1,39.69920611,16,0,-14,134,39,7510,147,-196,343,79,-102,79,-111,309,85,1,121,220,4,220,4,98.72000122,13,21,61,15.383671,TRUE
Tibet_Site17_Shuanghu_Shuanghu,154,Asia,292,NA,1?,1,2,sheep & yaks,domestic,grazer_browser,2,alpine steppe,1.25m2,1.25,33.21,88.8,palearctic,1,1,76.06856073,9,0,-44,138,38,7986,129,-230,359,57,-136,57,-146,215,64,1,122,155,4,155,5,140.6600037,9,24,54,15.061622,TRUE
Tibet_Site18_Nyima_Erjiu2,155,Asia,245,NA,1?,1,2,sheep & goats,domestic,grazer_browser,2,alpine steppe,1.25m2,1.25,32.34,86.65,palearctic,1,1,86.48465704,5,0,-8,141,40,7577,160,-188,348,82,-96,88,-105,199,58,1,117,141,7,139,9,140.6600037,12,16,63,13.490752,TRUE
Tibet_Site19_Nyima_Zhongcang2,156,Asia,220,NA,1?,1,2,sheep & goats,domestic,grazer_browser,2,alpine steppe,1.25m2,1.25,32.01,85.41,palearctic,1,1,66.80902322,11,0,-22,140,41,7283,142,-196,338,65,-72,71,-115,184,51,1,100,119,12,114,17,140.6600037,9,17,62,12.350877,TRUE
Tibet_Site2_Amdo_Cuomar,139,Asia,468,NA,1?,1,2,sheep & yaks,domestic,grazer_browser,2,alpine steppe-meadow,1.25m2,1.25,32.3,91.48,palearctic,1,1,32.24030136,29,0,-43,147,39,7916,125,-244,369,56,-129,56,-145,339,92,2,112,234,6,234,6,98.72000122,12,43,58,15.416813,TRUE
Tibet_Site20_Gerze_DongcuoTemple,157,Asia,212,NA,1?,1,2,sheep & goats,domestic,grazer_browser,2,alpine steppe,1.25m2,1.25,31.98,85.08,palearctic,1,1,56.6039451,14,0,-7,140,42,7189,155,-178,333,79,-57,85,-99,194,52,1,94,121,12,115,20,140.6600037,9,12,66,12.350877,TRUE
Tibet_Site21_Gerze_Dongcuo,158,Asia,180,NA,1?,1,2,sheep & goats,domestic,grazer_browser,2,alpine desert-steppe,1.25m2,1.25,32.25,84.37,palearctic,1,1,34.46760136,8,0,-8,139,41,7299,157,-178,335,79,-59,86,-101,194,49,1,86,114,13,108,24,170.2700043,9,13,63,12.222282,TRUE
Tibet_Site22_Gerze_Gerze,159,Asia,170,NA,1?,1,2,sheep & goats,domestic,grazer_browser,2,alpine desert-steppe,1.25m2,1.25,32.29,84.05,palearctic,1,1,37.27503588,9,0,-4,139,41,7305,161,-173,334,83,-55,90,-97,198,49,1,84,113,14,107,26,170.2700043,8,12,62,12.222282,TRUE
Tibet_Site23_Gegyai_Wenbudangsang,160,Asia,150,NA,1?,1,2,sheep & goats,domestic,grazer_browser,2,alpine desert-steppe,1.25m2,1.25,32.08,82.91,palearctic,1,1,81.34312549,7,0,-39,135,40,7311,128,-206,334,51,-88,56,-131,231,57,2,80,128,20,120,36,170.2700043,10,23,58,12.372764,TRUE
Tibet_Site24_Gegyai_Xiongbar2,161,Asia,120,NA,1?,1,2,sheep & goats,domestic,grazer_browser,2,alpine desert-steppe,1.25m2,1.25,32.08,81.82,palearctic,1,1,67.57867416,8,0,-10,139,40,7538,163,-180,343,83,-62,89,-104,247,62,3,83,139,21,130,38,170.2700043,7,18,61,12.777651,TRUE
Tibet_Site25_Rutog_Rusong,162,Asia,45,NA,1?,1,2,sheep & goats,domestic,grazer_browser,2,alpine desert-steppe,1.25m2,1.25,33.27,79.71,palearctic,1,1,60.88465912,3,0,-24,148,36,9014,181,-225,406,90,-81,94,-138,74,22,2,83,43,8,41,10,1423.099976,11,41,54,14.146499,TRUE
Tibet_Site3_Bangoin_Pengcuo_South,140,Asia,448,NA,1?,1,2,sheep & yaks,domestic,grazer_browser,2,alpine steppe-meadow,1.25m2,1.25,31.42,91.02,palearctic,1,1,34.03356946,19,0,-9,144,40,7619,153,-204,357,85,-92,85,-108,344,93,1,117,242,5,242,5,98.72000122,13,36,58,15.417904,TRUE
Tibet_Site4_Bangoin_Pubao,141,Asia,405,NA,1?,1,2,sheep & yaks,domestic,grazer_browser,2,alpine steppe,1.25m2,1.25,31.39,90.31,palearctic,1,1,37.11655103,22,0,-13,135,39,7510,148,-195,343,80,-100,80,-110,312,86,1,117,222,4,222,4,98.72000122,11,24,62,15.383671,TRUE
Tibet_Site5_Bangoin_Marqian,142,Asia,376,NA,1?,1,2,sheep & goats,domestic,grazer_browser,2,alpine steppe,1.25m2,1.25,31.83,89.93,palearctic,1,1,50.45386534,16,0,-14,133,38,7646,149,-196,345,81,-103,81,-113,301,84,1,117,214,4,214,4,140.6600037,10,22,61,15.384485,TRUE
Tibet_Site6_Shuanghu_Beicuo,143,Asia,250,NA,1?,1,2,"sheep, yaks, & goats",domestic,grazer_browser,3,alpine steppe,0.75m2,0.75,33.24,87.71,palearctic,1,1,65.82587469,9,0,-39,139,38,7995,136,-224,360,63,-131,63,-141,187,57,1,122,136,4,136,5,140.6600037,8,21,60,8.481831,TRUE
Tibet_Site7_Nyima_Erjiu,144,Asia,258,NA,1?,1,2,sheep & goats,domestic,grazer_browser,2,alpine steppe,1.25m2,1.25,31.94,86.89,palearctic,1,1,64.28852847,6,0,-2,141,40,7430,162,-182,344,86,-89,92,-98,217,65,1,118,157,6,154,8,140.6600037,8,17,61,13.490752,TRUE
Tibet_Site8_Nyima_Arsuo,145,Asia,258,NA,1?,1,2,sheep & goats,domestic,grazer_browser,2,alpine steppe,1.25m2,1.25,31.94,86.62,palearctic,1,1,48.11958032,8,0,-9,141,41,7398,156,-187,343,79,-95,86,-103,204,61,1,116,147,7,143,9,140.6600037,9,16,61,13.490752,TRUE
Tibet_Site9_Nyima_Zhongcang,146,Asia,225,NA,1?,1,2,sheep & goats,domestic,grazer_browser,2,alpine steppe,1.25m2,1.25,31.97,85.12,palearctic,1,1,76.62411789,9,0,-5,140,42,7180,157,-176,333,80,-55,87,-97,195,52,1,95,122,12,117,19,140.6600037,9,13,64,12.350877,TRUE
Tierber_Karoo_Research_Centre,240,Africa,176,NA,7,1,1,"duiker, steenbok, hares",non-domestic,grazer_browser,3,Karoo dwarf shrubland,,NA,-33.22,22.35,afrotropic,1,0,36.90737703,16,1.471993851,147,144,56,3806,279,25,254,176,97,195,97,354,43,22,19,112,71,91,71,267.7600098,12,11,66,17.754676,TRUE
VictoriaRiverResearchStation,12,Australia,780,108,2,1,2,cattle and wallabies,both,grazer_browser,2,savanna open woodland,30 m2,30,-16.07,130.95,australasia,1,1,62.37720467,20,0.936526127,275,144,55,3636,385,126,259,300,221,313,221,746,186,1,109,496,7,356,7,101.7900009,23,10,66,15.315421,TRUE
Washington_LTMurray,96,North America,569,22,2,1,1,Elk,non-domestic,grazer_browser,1,Arid shrub-steppe,,NA,48,-120.83,nearctic,1,0,22.98860557,29,2.003534824,47,115,35,7122,231,-89,320,-37,139,139,-42,1182,214,23,68,607,94,94,556,368.1000061,34,126,61,2.811272,TRUE
Washington_OakCreek,94,North America,526,199.5,2,1,2,Elk,non-domestic,grazer_browser,1,Shrub-steppe,,NA,46.72,-120.82,nearctic,1,0,9.979166667,45,1.521107357,77,132,39,7251,270,-67,337,-10,167,170,-15,385,65,8,59,186,35,41,172,368.1000061,27,36,44,4.676442,TRUE
Washington_Sinlahekin,97,North America,737,97,3,1,3,Deer,non-domestic,browser,1,Shrub-steppe / Ponderosa Pine,,NA,48.72,-120.65,nearctic,1,0,22.12733511,64,2.719380043,6,104,33,7125,181,-131,312,-76,97,98,-82,822,126,34,44,351,118,120,323,368.1000061,33,137,58,0.868774,TRUE
Washington_Wenas,95,North America,526,13,1,1,2,Elk,non-domestic,grazer_browser,1,Arid shrub-steppe,,NA,46.82,-120.65,nearctic,1,0,25.28735632,27,1.521107357,75,132,38,7497,272,-73,345,-15,168,172,-20,331,55,8,56,155,33,39,143,368.1000061,26,18,39,4.676442,TRUE
Westwater,186,North America,242,NA,1,1,2,cattle,domestic,grazer,1,S. desert shrub,25m2,25,39.19,-109.2,nearctic,0,1,33.83219955,20,2.738469736,108,164,36,9746,342,-107,449,178,-22,232,-22,239,27,14,19,73,48,59,48,280.7200012,21,8,43,19.283442,TRUE
Wild Cow Point,187,North America,349,NA,1,1,2,"cattle, horse, pronghorn, mule deer, elk, rabbit, bighorn sheep",both,grazer_browser,7,P-J Woodland/ Big Sage Transition,25m2,25,37.92,-109.95,nearctic,1,1,29.23076923,25,1.719461886,93,143,35,8806,307,-91,398,160,134,209,-18,305,37,12,26,100,50,81,73,280.7200012,18,15,54,19.033474,TRUE
